id,name,type,typecode,address,adname,longitude,latitude,location,lon_wgs84,lat_wgs84
B0FFFZXNN7,海关宿舍(田尾路),商务住宅;住宅区;宿舍,120303,中华路4号,思明区,118.070543,24.439313,"118.070543,24.439313",118.06557666615996,24.44196786734896
B0FFGJXWIB,绿雅居,商务住宅;住宅区;住宅小区,120302,漳州路28号,思明区,118.072269,24.441251,"118.072269,24.441251",118.06730109033983,24.44390418596611
B0JRC57RUM,澜庭屿筑,商务住宅;住宅区;住宅小区,120302,鼓浪屿漳州路24号,思明区,118.073626,24.440271,"118.073626,24.440271",118.06865713141256,24.44292246151258
B0FFFRKDRI,厦门市音乐学校教师宿舍楼,商务住宅;住宅区;宿舍,120303,鼓浪屿街道复兴路84号,思明区,118.07254,24.441595,"118.072540,24.441595",118.06757185300958,24.444247941306593
B0IGMH4P27,林家别苑,商务住宅;住宅区;住宅小区,120302,[],思明区,118.070028,24.443147,"118.070028,24.443147",118.06506184710749,24.445803262782942
B0FFF9WIEI,厦门华侨亚热带植物引种园研究生公寓,商务住宅;住宅区;宿舍,120303,鼓声路,思明区,118.064738,24.442462,"118.064738,24.442462",118.05977730414776,24.44512537616407
B0FFFF9OTS,星世界员工之家,商务住宅;住宅区;住宅小区,120302,福建路40号,思明区,118.072509,24.442899,"118.072509,24.442899",118.06754078351764,24.445552232139566
B0FFG8UY40,四十四号别墅,商务住宅;住宅区;别墅,120301,福建路44号附近,思明区,118.072638,24.443492,"118.072638,24.443492",118.06766964076415,24.44614520000394
B0FFF2W9WZ,版筑传芳,商务住宅;住宅区;住宅小区|住宿服务;旅馆招待所;旅馆招待所,120302|100200,泉州路72号,思明区,118.067704,24.444333,"118.067704,24.444333",118.06273997660644,24.446992529487602
B0FFHF21VR,迎熏别墅,商务住宅;住宅区;别墅,120301,福建路28号,思明区,118.073609,24.443177,"118.073609,24.443177",118.06863993506953,24.445829050524583
B02500QE71,龙头商院,商务住宅;住宅区;住宅小区,120302,龙头路84-98号,思明区,118.071837,24.44507,"118.071837,24.445070",118.06686916234914,24.447724434724783
B0FFF6ZOP7,鼓浪屿街道龙头社区,商务住宅;住宅区;社区中心,120304,龙头路84-98号2层,思明区,118.071703,24.445064,"118.071703,24.445064",118.06673527199527,24.447718591706007
B0FFF3BXGI,容谷别墅,商务住宅;住宅区;别墅,120301,旗山路5号,思明区,118.075103,24.443412,"118.075103,24.443412",118.07013288642771,24.44606250345019
B0FFFYJ219,公安宿舍(安海路),商务住宅;住宅区;宿舍,120303,笔山路6号之2号,思明区,118.066237,24.446204,"118.066237,24.446204",118.06127437075055,24.448865926410992
B0KUR79FTY,鸡山路20号小区,商务住宅;住宅区;住宅小区,120302,[],思明区,118.063143,24.446068,"118.063143,24.446068",118.05818393028005,24.44873449306615
B0FFKOTF0Z,福州大学工艺美术学院教工宿舍,商务住宅;住宅区;宿舍,120303,鸡山路35之1号附近,思明区,118.062361,24.446161,"118.062361,24.446161",118.057402889986,24.448828735072087
B025003L0Z,鼓浪屿街道内厝社区科普楼院(鼓新路),商务住宅;住宅区;住宅小区,120302,鼓新路55A楼,思明区,118.068206,24.450783,"118.068206,24.450783",118.06324101366673,24.45344308394237
B02500S693,龙渊别墅,商务住宅;住宅区;别墅,120301,延平路201-219,思明区,118.068295,24.45054,"118.068295,24.450540",118.0633299437123,24.453199919681428
B0M6J6B7W5,建行花园,商务住宅;住宅区;住宅区,120300,鹭江道与开元路交叉口北120米,思明区,118.072926,24.457293,"118.072926,24.457293",118.0679564286654,24.459948467285965
B0L119M8WJ,巨量佳缘,商务住宅;住宅区;住宅小区,120302,打铁街与开元路交叉口西北80米,思明区,118.07354,24.456719,"118.073540,24.456719",118.06857001254193,24.459373677904328
B0LRP6Q9ZU,打铁街101号,商务住宅;住宅区;住宅小区,120302,打铁街与开元路交叉口西北100米,思明区,118.073723,24.457189,"118.073723,24.457189",118.06875284596842,24.45984356232431
B0FFHMG5N2,磁安公寓,商务住宅;住宅区;住宅小区|住宿服务;旅馆招待所;旅馆招待所,120302|100200,磁安路27号福建省厦门市思明区磁安路27号,思明区,118.073425,24.45866,"118.073425,24.458660",118.0684549573537,24.46131515625958
B0FFGMHZ4M,大同路小区,商务住宅;住宅区;住宅小区,120302,镇邦路与大同路交叉口东南20米,思明区,118.076051,24.455956,"118.076051,24.455956",118.07107938652574,24.458607910655477
B0KU358HY5,开元路129号小区,商务住宅;住宅区;住宅小区,120302,开元路与大元路交叉口西40米,思明区,118.075799,24.457307,"118.075799,24.457307",118.07082744432086,24.459959407659035
B0I6TDP3OA,天能世家,商务住宅;住宅区;住宅小区,120302,大中路与镇邦路交叉口西北40米,思明区,118.076285,24.455601,"118.076285,24.455601",118.07131327097997,24.458252615107817
B025003N8A,声乐小区(鹭江道),商务住宅;住宅区;住宅小区,120302,内厝澳路304-1号,思明区,118.064727,24.448084,"118.064727,24.448084",118.05976591337937,24.4507484768723
B0FFF9EBHQ,康泰小区(康泰路),商务住宅;住宅区;住宅小区,120302,康泰路13之1-之6号,思明区,118.062712,24.448919,"118.062712,24.448919",118.05775325496599,24.451586708497924
B0FFKYR6Q9,华祥苑茗茶,商务住宅;住宅区;住宅小区,120302,升平路与大中路交叉口东20米,思明区,118.077004,24.455079,"118.077004,24.455079",118.07203189175235,24.457729826044076
B0LRG9TRW9,厦门鹭云居(中山路步行街店),商务住宅;住宅区;住宅小区,120302,大中路鹭云居嘉年华大厦,思明区,118.07744,24.455234,"118.077440,24.455234",118.07246764017417,24.457884445237433
B0FFG718ES,龙泽别墅,商务住宅;住宅区;别墅,120301,延平路21号,思明区,118.070701,24.447027,"118.070701,24.447027",118.06573397490114,24.449683176294823
B0L0MZ9546,亦乐小苑,商务住宅;住宅区;住宅小区,120302,土崎巷49号,思明区,118.077081,24.456003,"118.077081,24.456003",118.0721087822068,24.45865392229149
B0FFHKFUA9,顶峰·鹭江1号,商务住宅;住宅区;住宅区,120300,厦禾路5、7、9、11号,思明区,118.074484,24.460891,"118.074484,24.460891",118.06951304501014,24.4635454076663
B0M62HVRBK,文安社区近邻活动室,体育休闲服务;休闲场所;休闲场所|商务住宅;住宅区;社区中心,080500|120304,钓仔路与泰山路交叉口西南40米,思明区,118.077075,24.452325,"118.077075,24.452325",118.07210304988529,24.45497524984395
B0JGMM8TFY,小学社区,商务住宅;住宅区;住宅小区,120302,厦禾路9号之一二楼(顶峰一号南门),思明区,118.074521,24.460629,"118.074521,24.460629",118.069550038545,24.463283321811975
B0HBPZB8X6,花朵微社区,商务住宅;住宅区;住宅小区,120302,鹭江街道大同路145号-2,思明区,118.077479,24.456841,"118.077479,24.456841",118.07250650361702,24.45949170244116
B0FFM59V7X,金厦海域游,商务住宅;住宅区;住宅区,120300,鹭江道3号和平码头,思明区,118.076958,24.450512,"118.076958,24.450512",118.07198624585841,24.453162021700297
B0250043TE,嘉英大厦,商务住宅;住宅区;住宅小区,120302,小学路68号,思明区,118.075774,24.460632,"118.075774,24.460632",118.0708022208788,24.46328503041928
B0LRPXSF4F,鹭江一号九号,商务住宅;住宅区;住宅小区,120302,厦禾路与西应殿街交叉口西北40米,思明区,118.074825,24.460675,"118.074825,24.460675",118.0698538299191,24.463329010156567
B0MAZRF2X9,南珠行巷57号,商务住宅;住宅区;住宅小区,120302,开平路44号,思明区,118.076805,24.45895,"118.076805,24.458950",118.07183272635334,24.461601718763113
B025003YYL,海韵园,商务住宅;住宅区;住宅小区,120302,鹭江道276-294号,思明区,118.075013,24.461723,"118.075013,24.461723",118.0700416298609,24.464377000545387
B025003J3P,鼓浪屿街道文体活动中心,商务住宅;住宅区;社区中心,120304,内厝澳路208号,思明区,118.063462,24.446797,"118.063462,24.446797",118.05850249173115,24.449463140798283
B0250043TB,海城花园,商务住宅;住宅区;住宅小区,120302,小学路31-35号,思明区,118.076118,24.461421,"118.076118,24.461421",118.07114595307458,24.46407382821451
B02500VDOL,鼓浪屿街道文化站,商务住宅;住宅区;社区中心,120304,内厝澳路208号鼓浪屿街道文体活动中心内,思明区,118.063367,24.446677,"118.063367,24.446677",118.05840761488479,24.449343263919797
B0250043TO,建宝花园,商务住宅;住宅区;住宅小区,120302,小学路146-148号,思明区,118.075313,24.462467,"118.075313,24.462467",118.0703413808857,24.465120822931134
B0FFF4JXHG,同馨小筑,商务住宅;住宅区;住宅小区,120302,小学路35-37号,思明区,118.076532,24.461995,"118.076532,24.461995",118.0715596653977,24.464647524713662
B0FFFT7YMK,厦门食品公司宿舍,商务住宅;住宅区;宿舍,120303,小学路132号,思明区,118.077078,24.461653,"118.077078,24.461653",118.07210537776257,24.46430494151711
B0H3K7YGTV,小学路136号小区,商务住宅;住宅区;住宅小区,120302,小学路与西应殿街交叉口东140米,思明区,118.076896,24.462121,"118.076896,24.462121",118.07192344657848,24.464773197070016
B0MD4OK2VC,五因家园,商务住宅;住宅区;住宅小区,120302,小学路与西应殿街交叉口东南140米,思明区,118.076925,24.461875,"118.076925,24.461875",118.07195244782861,24.464527125943018
B0FFGD09MV,建发药厂宿舍,商务住宅;住宅区;宿舍,120303,小学路与西应殿街交叉口东140米,思明区,118.077053,24.462182,"118.077053,24.462182",118.07208035371237,24.464834058748245
B0LA5CT71J,年华邨小区-南区,商务住宅;住宅区;住宅小区,120302,小学路与西应殿街交叉口东120米,思明区,118.076871,24.462208,"118.076871,24.462208",118.0718984545245,24.464860236285062
B02500UEE4,汇景园(康泰路),商务住宅;住宅区;住宅小区,120302,康泰路111号,思明区,118.060011,24.446459,"118.060011,24.446459",118.05505593796534,24.449130622211705
B025003RS4,国贸金海岸,商务住宅;住宅区;住宅小区,120302,鹭江道93-97号附近,思明区,118.074424,24.465722,"118.074424,24.465722",118.06945273893815,24.46837731962229
B0FFG9YWGI,逸涛阁,商务住宅;住宅区;住宅小区,120302,鹭江道93-9号附近,思明区,118.07421,24.465105,"118.074210,24.465105",118.06923893151534,24.46776044107484
B025004220,国贸信隆城,商务住宅;住宅区;住宅小区,120302,鹭江街道小学社区西堤南里1-16号,思明区,118.076909,24.466104,"118.076909,24.466104",118.07193615285807,24.46875688093164
B0250043PI,兴鸿广场,商务住宅;住宅区;住宅小区,120302,鹭江道272号,思明区,118.075187,24.463113,"118.075187,24.463113",118.07021541602988,24.46576706602164
B025003ZV6,禹洲华侨海景城,商务住宅;住宅区;住宅小区,120302,湖滨西路9号,思明区,118.077279,24.46366,"118.077279,24.463660",118.07230612219992,24.46631210611295
B0L0V9JYTC,鹭江道社区,商务住宅;住宅区;住宅区,120300,鹭江道辅路与西堤南四路交叉口东北100米,思明区,118.074679,24.462638,"118.074679,24.462638",118.06970778688164,24.465292511048023
B025003Z0T,华年邨小区,商务住宅;住宅区;住宅小区,120302,小学路138号,思明区,118.076702,24.462737,"118.076702,24.462737",118.07172951328873,24.465389491508482
B0IRSHANT6,小学路140-1幢,商务住宅;住宅区;住宅小区,120302,小学路与西应殿街交叉口东80米,思明区,118.076431,24.462699,"118.076431,24.462699",118.07145867413728,24.465351747115296
B0LACUFWH9,年华邨小区-北区,商务住宅;住宅区;住宅小区,120302,禾祥西二路与西应殿街交叉口东140米,思明区,118.077112,24.462616,"118.077112,24.462616",118.07213928957235,24.465268079583712
B0J0G9AE5W,跑跑·好消息花园,商务住宅;住宅区;住宅小区,120302,双狮西路与双狮南路交叉口西北220米,湖里区,118.076307,24.488423,"118.076307,24.488423",118.0713328976191,24.491080080223824
B0250042JR,国际邮轮城,商务住宅;住宅区;住宅小区,120302,东港南路23号(邮轮中心地铁站6号口步行330米),湖里区,118.07687,24.482439,"118.076870,24.482439",118.071896000198,24.48509461323263
B0FFHD478W,国际邮轮城一期,商务住宅;住宅区;住宅小区,120302,东港南路15-27号,湖里区,118.077039,24.480289,"118.077039,24.480289",118.0720650594396,24.482944112616675
B0FFI8KPH0,联发杏林湾一号三期,商务住宅;住宅区;住宅小区,120302,宁海五里26-1号,集美区,118.063519,24.558147,"118.063519,24.558147",118.05855141857856,24.560828379955876
B02500ROXJ,联发杏林湾一号,商务住宅;住宅区;住宅区,120300,杏林街道宁海五里26-1号,集美区,118.063855,24.559061,"118.063855,24.559061",118.05888695138584,24.56174194328404
B0FFGFG644,联发杏林湾一号一期,商务住宅;住宅区;住宅小区,120302,宁海五里34-1号,集美区,118.064934,24.559507,"118.064934,24.559507",118.05996466531693,24.562186364941383
B0FFFOWIJ9,联发杏林湾一号二期,商务住宅;住宅区;住宅小区,120302,建发缦玥长滩,集美区,118.062758,24.559965,"118.062758,24.559965",118.05779121563356,24.56264771001086
B02500QI6Z,中海·寰宇天下,商务住宅;住宅区;住宅区,120300,杏滨路与杏东路交叉口东南侧,集美区,118.060693,24.559255,"118.060693,24.559255",118.05572891665034,24.56194097146777
B0L67GPAQX,联发杏林湾一号23期,商务住宅;住宅区;住宅小区,120302,宁海五路与杏林东路辅路交叉口南140米,集美区,118.062297,24.559813,"118.062297,24.559813",118.05733080152501,24.562496423483154
B0L109DEYH,龙凤阁,商务住宅;住宅区;住宅小区,120302,宁海六里5-318,集美区,118.06179,24.559542,"118.061790,24.559542",118.05682446442589,24.562226209679658
B0KU35FOZX,渔监宿舍,商务住宅;住宅区;宿舍,120303,沙坡尾与大学路交叉口北40米,思明区,118.088274,24.437936,"118.088274,24.437936",118.08329990535897,24.44057570819608
B0K05ZVE1N,沙坡尾社区,政府机构及社会团体;政府机关;乡镇以下级政府及事业单位|商务住宅;住宅区;住宅小区,130106|120302,大学路53号,思明区,118.087756,24.439752,"118.087756,24.439752",118.08278178576239,24.442392303894508
B0IAOPYELT,udream老厦门公寓(大学路分店),商务住宅;住宅区;住宅区,120300,大学路采香花苑,思明区,118.088187,24.43883,"118.088187,24.438830",118.08321284202458,24.441469924993594
BZ86Q900NU,蜂巢山路,地名地址信息;交通地名;道路名|商务住宅;住宅区;住宅区,190301|120300,蜂巢山路与民族路交叉口东北20米,思明区,118.087429,24.44003,"118.087429,24.440030",118.08245477946352,24.442670513100953
B02500357E,山海花园,商务住宅;住宅区;住宅小区,120302,厦港街道沙坡尾社区大学路160-162号,思明区,118.089169,24.436734,"118.089169,24.436734",118.08419500396892,24.439373090908276
B0LG31HET3,鑫杰瑞名城,商务住宅;住宅区;住宅小区,120302,蜂巢山路与大学路交叉口东20米,思明区,118.087693,24.440101,"118.087693,24.440101",118.08271876290794,24.44274140230821
B0KDZ5NVTQ,中埔头小区,商务住宅;住宅区;住宅小区,120302,蜂巢山路与大学路交叉口东100米,思明区,118.088497,24.439989,"118.088497,24.439989",118.08352275719062,24.442629019325018
B0LGHAJUUK,厦港大埔头,商务住宅;住宅区;住宅小区,120302,大学路与沙坡尾交叉口东北180米,思明区,118.089523,24.438773,"118.089523,24.438773",118.08454887314069,24.44141235983573
B0L09PB4BM,世茂云上厦门,商务住宅;住宅区;住宅小区,120302,演武西路与大学路交叉口西南140米,思明区,118.088874,24.435377,"118.088874,24.435377",118.08390009309704,24.43801593736776
B0FFG2D9J6,沃园,商务住宅;住宅区;住宅小区,120302,大桥头57号楼旁边、照强大排档后面,思明区,118.090373,24.436858,"118.090373,24.436858",118.08539907354498,24.43949666638807
B0LK45W4HP,厦门大学附属第一医院学生宿舍,商务住宅;住宅区;宿舍,120303,思明南路394-18-1号,思明区,118.089917,24.440522,"118.089917,24.440522",118.08494277214672,24.443161558547402
B0L2GKSQX2,园山宫7号,商务住宅;住宅区;住宅小区,120302,成功大道与成功大道入口交叉口东南140米,思明区,118.087375,24.442025,"118.087375,24.442025",118.082400638853,24.444665931862446
B0MGJYB1XX,厦门大学大桥头博士公寓,商务住宅;住宅区;宿舍,120303,大学路与演武西路交叉口东40米,思明区,118.090325,24.436575,"118.090325,24.436575",118.08535108939154,24.43921362617398
B0250041HV,海洋花园,商务住宅;住宅区;住宅小区,120302,思明南路384-390号,思明区,118.089797,24.441305,"118.089797,24.441305",118.08482270754384,24.443944757142425
B02500409M,演武花园,商务住宅;住宅区;住宅小区,120302,顶澳仔2号之1-5,思明区,118.091493,24.437622,"118.091493,24.437622",118.0865191554218,24.440260459994146
B0KU57RJJV,顶澳仔小区,商务住宅;住宅区;住宅小区,120302,顶澳仔与西村路交叉口西140米,思明区,118.091441,24.439393,"118.091441,24.439393",118.086467020443,24.442031828407853
B0FFH1FUOI,西村壹号地,商务住宅;住宅区;住宅小区,120302,下澳仔街,思明区,118.091179,24.437489,"118.091179,24.437489",118.08620512044051,24.44012752849686
B0I1310XBL,厦屿花生活花艺美学(厦门大学店),购物服务;花鸟鱼虫市场;花卉市场|商务住宅;住宅区;住宅小区,060501|120302,下沃仔14号104,思明区,118.091439,24.437223,"118.091439,24.437223",118.08646517609131,24.43986139610654
B0L211UVZR,大桥头47号,商务住宅;住宅区;住宅小区,120302,大学路32号,思明区,118.091068,24.436658,"118.091068,24.436658",118.08609416556484,24.439296396432514
B0K33RZILZ,中国中铁宿舍楼,商务住宅;住宅区;宿舍,120303,思明南路172-13-2号,思明区,118.09036,24.435088,"118.090360,24.435088",118.08538619950404,24.437726313870442
B0250043RX,厦成海景花园,商务住宅;住宅区;住宅小区,120302,厦港街道福海社区民族路54号,思明区,118.083439,24.442707,"118.083439,24.442707",118.07846517802032,24.445350309309482
B0KUSAPCON,下澳社区,商务住宅;住宅区;住宅小区,120302,下沃仔与顶澳仔交叉口东南80米,思明区,118.091362,24.437036,"118.091362,24.437036",118.08638817836427,24.439674381697643
B0MDXL0WB2,芙蓉学生公寓,商务住宅;住宅区;宿舍,120303,下沃仔与顶澳仔交叉口东100米,思明区,118.091575,24.437125,"118.091575,24.437125",118.08660120356129,24.43976333629124
B025002HFU,碧山临海,商务住宅;住宅区;住宅小区,120302,厦港街道巡司顶社区永福宫巷3-7号,思明区,118.088975,24.443171,"118.088975,24.443171",118.08400053537285,24.445811443513534
B02500409N,厦大西村B区,商务住宅;住宅区;住宅小区,120302,厦大西村15号,思明区,118.092,24.437392,"118.092000,24.437392",118.08702625403629,24.440030269666916
B0LKZLFETD,纽新公寓,住宿服务;旅馆招待所;旅馆招待所|商务住宅;住宅区;住宅小区,100200|120302,下沃仔与顶澳仔交叉口东南120米,思明区,118.091625,24.436925,"118.091625,24.436925",118.08665122567061,24.43956328159333
B02500409K,大学城商场,购物服务;超级市场;超市|购物服务;商场;普通商场|商务住宅;住宅区;住宅小区,060400|060102|120302,演武路43号,思明区,118.092419,24.43669,"118.092419,24.436690",118.08744538179245,24.439328018242676
B0FFJ93FR6,厦门水产造船厂顶沃仔职工住宅楼,商务住宅;住宅区;住宅区,120300,顶澳仔8号,思明区,118.091846,24.43942,"118.091846,24.439420",118.08687208203692,24.442058716650802
B0250043RY,海滨花园,商务住宅;住宅区;住宅小区,120302,民族路56号之1-4,思明区,118.08384,24.443373,"118.083840,24.443373",118.07886603532594,24.44601617854923
B0KUNMN5TL,演武花园三期,商务住宅;住宅区;住宅小区,120302,厦港街道下沃社区顶澳仔6号10号18号,思明区,118.092082,24.439158,"118.092082,24.439158",118.08710814158292,24.441796599773088
B0KU1AP0KQ,五矿宿舍,商务住宅;住宅区;宿舍,120303,民族路与成功大道辅路交叉口西北120米,思明区,118.08406,24.443096,"118.084060,24.443096",118.07908600656924,24.44573898468125
B0LA2UMYG0,格格小区,商务住宅;住宅区;住宅小区,120302,下澳仔与演武路交叉口西120米,思明区,118.092035,24.437391,"118.092035,24.437391",118.08706126023813,24.440029259932196
B0FFGD0LOC,厦门大学城小区,商务住宅;住宅区;住宅小区,120302,演武路63号,思明区,118.092422,24.436685,"118.092422,24.436685",118.08744838273616,24.439323016474436
B0LR7RIZQI,福海宫后巷11号,商务住宅;住宅区;住宅小区,120302,成功大道入口与成功大道交叉口西北100米,思明区,118.085733,24.44363,"118.085733,24.443630",118.08075867612297,24.4462720962531
B02500409R,厦大西村,商务住宅;住宅区;住宅小区,120302,演武路思明南路422号厦门大学,思明区,118.093073,24.438635,"118.093073,24.438635",118.08809937980483,24.44127325060898
B0250049B4,星鲨宿舍,商务住宅;住宅区;宿舍,120303,思明南路422号厦门大学,思明区,118.090652,24.442641,"118.090652,24.442641",118.08567768626992,24.445280717290782
B0250045XE,当代天境,商务住宅;住宅区;住宅小区,120302,民族路58-3号,思明区,118.083718,24.443877,"118.083718,24.443877",118.0787440271189,24.446520355073588
B025004047,碧山社区,商务住宅;住宅区;住宅小区,120302,碧山路187-189,思明区,118.084576,24.444213,"118.084576,24.444213",118.07960182150632,24.446855882277042
B0L2G6QZ7X,永福宫2号,商务住宅;住宅区;住宅小区,120302,思明南路与蜂巢山路交叉口东北100米,思明区,118.089975,24.442775,"118.089975,24.442775",118.08500061449925,24.44541497965979
B0250043U0,南华苑,商务住宅;住宅区;住宅小区,120302,南华路36号,思明区,118.092206,24.441366,"118.092206,24.441366",118.08723200538256,24.444005003075617
B025003ZZJ,厦港花园,商务住宅;住宅区;住宅小区,120302,厦港新村26-28,思明区,118.09072,24.443192,"118.090720,24.443192",118.08574565414924,24.44583180221107
B0FFG64YB9,学府花园(顶澳仔),商务住宅;住宅区;住宅小区,120302,思明南路408号之九,思明区,118.093131,24.439846,"118.093131,24.439846",118.08815730600205,24.442484478134002
B0FFGALUTN,鹭江海景一期,商务住宅;住宅区;住宅区,120300,碧山路68号,思明区,118.085082,24.444596,"118.085082,24.444596",118.08010770395967,24.447238654770352
B0FFJ8MG9J,兰华墅,商务住宅;住宅区;别墅|住宿服务;旅馆招待所;旅馆招待所,120301|100200,南华路27号,思明区,118.092424,24.440591,"118.092424,24.440591",118.08745010242805,24.44322979395401
B0LUGAAJPP,喜仕居,商务住宅;住宅区;住宅小区,120302,下澳仔与演武路交叉口西40米,思明区,118.092775,24.436875,"118.092775,24.436875",118.08780144091376,24.43951296767284
B0FFGA1OEH,当代凤凰谷,商务住宅;住宅区;住宅小区,120302,民族路58号,思明区,118.08315,24.443697,"118.083150,24.443697",118.07817618013023,24.44634069454371
B0FFGTD9QT,厦门大学教职工宿舍,商务住宅;住宅区;宿舍,120303,思明南路422号厦门大学(思明校区),思明区,118.092822,24.43988,"118.092822,24.439880",118.08784823498945,24.44251855578387
B025004049,鹭江海景,商务住宅;住宅区;住宅小区,120302,碧山路128号,思明区,118.0846,24.444731,"118.084600,24.444731",118.07962577972242,24.44737396800878
B0LAJOGE3V,鹭光公寓,商务住宅;住宅区;住宅小区|住宿服务;旅馆招待所;旅馆招待所,120302|100200,思明南路与成功大道入口交叉口西北20米,思明区,118.087364,24.444149,"118.087364,24.444149",118.08238948677585,24.44679035123631
B0FFFZDJXA,南华社区,商务住宅;住宅区;住宅小区|政府机构及社会团体;政府及社会团体相关;政府及社会团体相关,120302|130000,[],思明区,118.090102,24.443458,"118.090102,24.443458",118.08512757535358,24.446098066911997
B0FFH1I5XO,蒋厝,商务住宅;住宅区;住宅小区,120302,思明南路445号,思明区,118.086852,24.444478,"118.086852,24.444478",118.08187749675629,24.447119667570227
B025002QI9,厦港花园C型公寓,商务住宅;住宅区;住宅小区,120302,厦港新村32号,思明区,118.091049,24.44312,"118.091049,24.443120",118.0860746987233,24.445759681835966
B0FFFA671N,鹭江海景二期,商务住宅;住宅区;住宅区,120300,碧山路128号,思明区,118.084261,24.444838,"118.084261,24.444838",118.07928683899661,24.44748119691992
B0LKYC55X5,碧山路37号,商务住宅;住宅区;住宅小区,120302,碧山路与思明南路交叉口西60米,思明区,118.085799,24.444544,"118.085799,24.444544",118.08082460173563,24.447186237011227
B0MDN6EKUL,思明南路479-2-106号,商务住宅;住宅区;住宅小区,120302,巡司顶巷与思明南路交叉口东北100米,思明区,118.088625,24.444225,"118.088625,24.444225",118.08365045348222,24.44686579433106
B025004007,两园,商务住宅;住宅区;住宅小区,120302,思明南路507号,思明区,118.093412,24.440371,"118.093412,24.440371",118.08843833466327,24.44300952118025
B0KUCU60UU,碧山路29号小区,商务住宅;住宅区;住宅小区,120302,碧山路与思明南路交叉口西20米,思明区,118.086075,24.444839,"118.086075,24.444839",118.08110054649325,24.447481143323227
B0MBNXUS4K,好运万嘉,商务住宅;住宅区;住宅小区,120302,巡司顶巷与思明南路交叉口东北100米,思明区,118.088725,24.444325,"118.088725,24.444325",118.08375044743268,24.44696577144871
B02500423W,外贸新村,商务住宅;住宅区;住宅小区,120302,民族路41号,思明区,118.083093,24.444612,"118.083093,24.444612",118.07811912930661,24.447255910377265
B0FFH1LWBU,厦门市水产发展公司宿舍大楼,商务住宅;住宅区;宿舍,120303,巡司顶巷与永福宫巷交叉口西100米,思明区,118.089514,24.444235,"118.089514,24.444235",118.08453948010697,24.44687543633999
B0FFFVGRDF,海洋仪器厂宿舍楼,商务住宅;住宅区;宿舍,120303,厦港街道巡司顶巷16号701室,思明区,118.089287,24.44445,"118.089287,24.444450",118.08431245398188,24.44709056651862
B0FFL6PU9X,慧苑,商务住宅;住宅区;住宅区,120300,南华路13号附近,思明区,118.093108,24.440703,"118.093108,24.440703",118.0881342391479,24.443341652628515
B0FFHMNAHW,花嚴苑阿兰,商务住宅;住宅区;住宅区,120300,南华路与思明南路交叉口北60米,思明区,118.093156,24.440645,"118.093156,24.440645",118.08818225433124,24.443283630505572
B0KURCTTLU,省四建宿舍,商务住宅;住宅区;宿舍,120303,永富宫巷与永福宫巷交叉口东南40米,思明区,118.091076,24.443577,"118.091076,24.443577",118.08610166934447,24.446216762302136
B025003074,海洋新村,商务住宅;住宅区;住宅小区,120302,大学路174号,思明区,118.093087,24.433903,"118.093087,24.433903",118.08811372300731,24.436540294322384
B025003ZZI,厦港新村,商务住宅;住宅区;住宅小区,120302,[],思明区,118.091186,24.443982,"118.091186,24.443982",118.08621165473407,24.446621806650793
B025003ZZO,赤岭小区,商务住宅;住宅区;住宅小区,120302,南普陀路7号之1号,思明区,118.093287,24.441836,"118.093287,24.441836",118.08831319936704,24.44447483614861
B0FFFVPETZ,巡司顶海龙小区,商务住宅;住宅区;住宅小区,120302,巡司顶4号、6号,思明区,118.08998,24.444841,"118.089980,24.444841",118.08500546637765,24.447481379186147
B02500QIZP,鸿山新村,商务住宅;住宅区;住宅小区,120302,寿彭路2号,思明区,118.084558,24.445757,"118.084558,24.445757",118.07958371396985,24.448400191438182
B02500T2AK,大生里,商务住宅;住宅区;住宅小区,120302,思明南路298号前列,思明区,118.085232,24.445957,"118.085232,24.445957",118.08025758187577,24.4485998300491
B0FFK0EQOL,猛虎小区,商务住宅;住宅区;住宅区,120300,寿彭路1-之1-2号附近,思明区,118.08401,24.445461,"118.084010,24.445461",118.07903584744929,24.448104474667826
B025004009,厦大北村,商务住宅;住宅区;住宅小区,120302,思明南路509号,思明区,118.094465,24.440609,"118.094465,24.440609",118.0894916004844,24.44324737169368
B0HGR7MN8Q,厦门市粮食集团宿舍,商务住宅;住宅区;宿舍,120303,思明南路433号之二,思明区,118.086948,24.445533,"118.086948,24.445533",118.08197341363775,24.448174823055698
B0M61CIC8Q,中旅宿舍,商务住宅;住宅区;宿舍,120303,思明南路300-之1-1号,思明区,118.085252,24.445502,"118.085252,24.445502",118.08027761142807,24.448144730939898
B0KU1MP09G,法院宿舍,商务住宅;住宅区;宿舍,120303,演武大桥与寿山路交叉口东南100米,思明区,118.082254,24.444763,"118.082254,24.444763",118.07728035677722,24.447407521478453
B0250043N7,南华赤岭,商务住宅;住宅区;住宅小区,120302,南华路40号,思明区,118.094052,24.441592,"118.094052,24.441592",118.08907841245359,24.444230636354312
B0KULM1OXI,公安局宿舍,商务住宅;住宅区;宿舍,120303,白鹿路与思明南路交叉口东北80米,思明区,118.086612,24.445751,"118.086612,24.445751",118.08163742546137,24.448393035754407
B02500QJ50,鸿山社区党员活动室,商务住宅;住宅区;社区中心,120304,寿彭路1-之2号附近,思明区,118.083374,24.445289,"118.083374,24.445289",118.07840000857834,24.447932853372365
B0HG251MCX,华联商厦宿舍,商务住宅;住宅区;宿舍,120303,思明南路433号之三,思明区,118.088842,24.445798,"118.088842,24.445798",118.08386734350914,24.448439006961554
B0J2Y4BYNY,不见天,商务住宅;住宅区;住宅小区,120302,永福宫巷与巡司顶巷交叉口东280米,思明区,118.093012,24.444233,"118.093012,24.444233",118.08803796374268,24.446872364545
B0KUB5XPDQ,厦港新村,商务住宅;住宅区;住宅小区,120302,永福宫巷与永富宫巷交叉口东北200米,思明区,118.092471,24.444833,"118.092471,24.444833",118.08749680675639,24.447472610534927
B025004DFA,新华城,商务住宅;住宅区;住宅小区,120302,开元街道虎溪社区新华路65号(中山公园地铁站1号口步行290米),思明区,118.087491,24.454717,"118.087491,24.454717",118.0825157206993,24.45736028662412
B0KULCGZP0,建筑设计院宿舍,商务住宅;住宅区;宿舍,120303,新华路与古城东路交叉口东南80米,思明区,118.087072,24.454487,"118.087072,24.454487",118.08209676118518,24.457130447740436
B0FFH1FFW2,厦门农行思明楼,商务住宅;住宅区;住宅区,120300,中华街道仁安社区盐溪街10号(中山公园地铁站1号口步行310米),思明区,118.08714,24.45359,"118.087140,24.453590",118.08216482120702,24.456233248706024
B0KULRW09N,虞朝巷小区,商务住宅;住宅区;住宅小区,120302,古城东路与中山路交叉口东南80米,思明区,118.085,24.454462,"118.085000,24.454462",118.08002500846888,24.45710656560032
B025003ZJA,华润苑,商务住宅;住宅区;住宅小区,120302,中华街道仁安社区盐溪街4-6号(中山公园地铁站1号口步行290米),思明区,118.087447,24.453327,"118.087447,24.453327",118.08247182275188,24.455970051159515
B025004DF3,玉滨城3期,商务住宅;住宅区;住宅小区,120302,公园南路53-57(中山公园地铁站3A口步行400米),思明区,118.086429,24.455965,"118.086429,24.455965",118.08145370846854,24.45860904631051
B0KURZ1QPW,苏厝街小区,商务住宅;住宅区;住宅小区,120302,镇海路与上古街交叉口西北140米,思明区,118.085869,24.453255,"118.085869,24.453255",118.0808939665507,24.4558988483519
B0FFH1ESIZ,仁安社区,商务住宅;住宅区;住宅小区,120302,桥亭街与中山路交叉口东南100米,思明区,118.084854,24.453777,"118.084854,24.453777",118.07987908299134,24.456421525685546
B025002SKX,玉滨城,商务住宅;住宅区;住宅小区,120302,公园南路13号(中山公园地铁站3A口步行320米),思明区,118.087079,24.456154,"118.087079,24.456154",118.08210364084873,24.458797749761256
B0MAMS5JY2,新华路73-4号,商务住宅;住宅区;住宅小区,120302,新华路65号之5(中山公园地铁站1号口步行290米),思明区,118.087874,24.454639,"118.087874,24.454639",118.0828987119739,24.457282093266674
B025003ZOF,秀德大厦,商务住宅;住宅区;住宅小区,120302,同安路3号(中山公园地铁站1号口步行130米),思明区,118.088353,24.454489,"118.088353,24.454489",118.08337771498636,24.457131851095113
B0K37ZMTLN,万凯云居(厦门中山路步行街店),商务住宅;住宅区;住宅小区,120302,中山路与霞溪路交叉口东40米,思明区,118.084475,24.454475,"118.084475,24.454475",118.07950010331332,24.457119883188895
B0J6YNVSEG,石路街28号,商务住宅;住宅区;住宅小区,120302,新华路65号之5(中山公园地铁站1号口步行210米),思明区,118.088069,24.454849,"118.088069,24.454849",118.0830936923479,24.457492043264363
B025003T33,镇海明珠,商务住宅;住宅区;住宅小区,120302,开元街道虎溪社区兴华路29-31号(中山公园地铁站2号口步行220米),思明区,118.088248,24.453274,"118.088248,24.453274",118.08327280308646,24.455916672916242
B025004D2N,玉滨城2期,商务住宅;住宅区;住宅小区,120302,公园南路35号(中山公园地铁站3A口步行220米),思明区,118.087394,24.456341,"118.087394,24.456341",118.08241860869977,24.45898463029165
B02500415W,高帝·镇海花园,商务住宅;住宅区;住宅小区,120302,中华街道镇海社区镇海路61-109号,思明区,118.087636,24.452484,"118.087636,24.452484",118.08266087497891,24.455126805182932
B0MB75PDTJ,中国电信邮电大院,商务住宅;住宅区;住宅小区,120302,中山路与城隍庙巷交叉口北60米,思明区,118.084875,24.456025,"118.084875,24.456025",118.07989991766159,24.45866992606207
B0J6YBVDZV,草埔巷小区,商务住宅;住宅区;住宅小区,120302,桥亭街与仁安巷交叉口东南40米,思明区,118.083747,24.4534,"118.083747,24.453400",118.07877233588056,24.456045142431687
B0250041Y2,领秀中山,商务住宅;住宅区;住宅小区,120302,开元街道溪岸社区出米岩8-10号,思明区,118.087006,24.456978,"118.087006,24.456978",118.08203058662767,24.45962193600613
B0I6TSOO1J,永丽达花园,商务住宅;住宅区;住宅小区,120302,中山路步行街与桥亭街交叉口东北20米,思明区,118.083596,24.454324,"118.083596,24.454324",118.07862130492754,24.456969410979468
B025002NME,民盛大厦,商务住宅;楼宇;商务写字楼|商务住宅;住宅区;住宅小区,120201|120302,镇海路39号-3(镇海路地铁站2号口步行240米),思明区,118.08661,24.451578,"118.086610,24.451578",118.08163500675909,24.454221141755454
B025004BXR,达意商业城公寓,商务住宅;住宅区;住宅小区,120302,霞溪路33、41,思明区,118.083468,24.454793,"118.083468,24.454793",118.07849330216138,24.457438581085995
B0FFFA7MTV,玉滨城1期,商务住宅;住宅区;住宅小区,120302,公园南路13号(中山公园地铁站3A口步行120米),思明区,118.088336,24.456431,"118.088336,24.456431",118.08336057542608,24.459074214150547
B0FFGKB464,厦门市思明区上古街82号小区,商务住宅;住宅区;住宅小区,120302,镇海路与上古街交叉口东120米,思明区,118.088052,24.452185,"118.088052,24.452185",118.08307688421334,24.454827558125597
B0LKFAT2ZN,镇海路石照巷23号,商务住宅;住宅区;住宅小区,120302,中华街道石顶街68-1号,思明区,118.084351,24.452483,"118.084351,24.452483",118.0793762711313,24.455127590887443
B025003Z3H,台光花园,商务住宅;住宅区;住宅小区,120302,仁安巷12(镇海路地铁站3B口步行330米),思明区,118.083229,24.453185,"118.083229,24.453185",118.07825447771899,24.455830442834912
B0LGD7J3HW,文绿苑,商务住宅;住宅区;住宅小区,120302,公园西路与公园南路交叉口西北40米,思明区,118.087025,24.456925,"118.087025,24.456925",118.08204958910409,24.45956891692408
B025003ZY1,公园西路小区,商务住宅;住宅区;住宅小区,120302,公园西路12号之1(中山公园地铁站3A口步行370米),思明区,118.088055,24.457251,"118.088055,24.457251",118.08307951988732,24.459894488060304
B0MA9S96XC,南田巷69号,商务住宅;住宅区;住宅小区,120302,霞溪路36号之101-102,思明区,118.08327,24.455013,"118.083270,24.455013",118.07829533581379,24.457658752600903
B0250041SL,四季阁,商务住宅;住宅区;住宅小区,120302,镇海路35之1(镇海路地铁站2号口步行280米),思明区,118.086178,24.451234,"118.086178,24.451234",118.08120307505284,24.45387730446577
B0FFGKB459,同安里,商务住宅;住宅区;住宅小区,120302,公园南路与同安路交叉口西120米,思明区,118.088631,24.456315,"118.088631,24.456315",118.08365558434578,24.458958065781754
B0L23S52R0,石照巷9号,商务住宅;住宅区;住宅小区,120302,石顶街35-1号(镇海路地铁站3B口步行90米),思明区,118.084041,24.452292,"118.084041,24.452292",118.07906634968536,24.454936749044812
B0FFGMO3O6,红霞金钻,商务住宅;住宅区;住宅区,120300,霞溪路45-69号,思明区,118.082748,24.454966,"118.082748,24.454966",118.07777347886558,24.457612098109884
B0FFH1OX9U,霞溪社区,商务住宅;住宅区;住宅小区,120302,中山路步行街与桥亭街交叉口西北80米,思明区,118.082971,24.454806,"118.082971,24.454806",118.0779964290586,24.45745191592882
B0FFG1NMCS,双十教师宿舍,商务住宅;住宅区;宿舍,120303,镇海路34号之二(镇海路地铁站3B口步行130米),思明区,118.084886,24.451443,"118.084886,24.451443",118.07991124516154,24.454087072879446
B0M661B8KI,墙顶巷51号,商务住宅;住宅区;住宅小区,120302,古城西路与思明东路交叉口东南100米,思明区,118.08364,24.456414,"118.083640,24.456414",118.07866514420826,24.459059765247936
B0FFGKB4ER,信义里社区,商务住宅;住宅区;住宅小区,120302,同安路(中山公园地铁站2号口步行70米),思明区,118.089806,24.454937,"118.089806,24.454937",118.08483072816009,24.457579345813365
B0I1BMT6UX,景粼原著,商务住宅;住宅区;住宅小区,120302,石顶街与仁安巷交叉口东南100米,思明区,118.083234,24.452633,"118.083234,24.452633",118.07825951611908,24.45527833705838
B0MBKLQS1R,西庵巷2号,商务住宅;住宅区;住宅小区,120302,新华路与思明东路交叉口南80米,思明区,118.083949,24.456852,"118.083949,24.456852",118.07897404198718,24.45949764628713
B0FFIJOLEL,老街壹号中华城美食街(中华城北区店),商务住宅;住宅区;住宅小区|购物服务;特色商业街;特色商业街,120302|061000,思明南路195号中华城北区1F层,思明区,118.082565,24.453717,"118.082565,24.453717",118.07759062079954,24.456362995110585
B0M65SHASU,花前月厦,商务住宅;住宅区;住宅小区|商务住宅;楼宇;楼宇相关,120302|120200,新华路与思明东路交叉口东南60米,思明区,118.084055,24.457202,"118.084055,24.457202",118.07907999364166,24.459847642692647
B0MG9DP0PB,中华城A2地块D区,商务住宅;住宅区;住宅小区,120302,思明南路与镇海路交叉口北80米,思明区,118.083425,24.451675,"118.083425,24.451675",118.07845053689738,24.4543200317742
B0FFH27OEQ,虎溪社区,商务住宅;住宅区;住宅小区,120302,白鹿路与兴华路交叉口西南60米,思明区,118.089652,24.452174,"118.089652,24.452174",118.08467691710642,24.4548158925897
B0KUC5W7RD,南田巷小区,商务住宅;住宅区;住宅小区,120302,妙香路与思明南路交叉口东100米,思明区,118.0821,24.454755,"118.082100,24.454755",118.077125686082,24.45740151607385
B0LDOU3FPH,碧桂园国际海岸(中华城南区),商务住宅;住宅区;住宅小区,120302,思明南路与青石巷交叉口东100米,思明区,118.083059,24.45208,"118.083059,24.452080",118.07808460151217,24.454725351782997
B0IAXYZBBD,顶井巷44-2号,商务住宅;住宅区;住宅小区,120302,古城西路133号,思明区,118.082895,24.456571,"118.082895,24.456571",118.07792032278186,24.459217290575644
B0FFHIB5GP,厦门第二干休所3区,商务住宅;住宅区;住宅小区,120302,白鹿路与兴华路交叉口南80米,思明区,118.089661,24.452003,"118.089661,24.452003",118.08468592993727,24.454644857317696
B0IG0Z6SX6,瑞丰楼,商务住宅;住宅区;住宅小区,120302,励志路与白鹿路交叉口西40米,思明区,118.090225,24.453525,"118.090225,24.453525",118.08524986202633,24.456166933783834
B025004A07,鸿山小区,商务住宅;住宅区;住宅小区,120302,思明南路275-277号(镇海路地铁站2号口旁),思明区,118.084196,24.45037,"118.084196,24.450370",118.07922145485159,24.453014292084745
B0J67KP2XX,贴心管家玲姐公寓(思明南路分店),商务住宅;住宅区;住宅区,120300,中山路步行街15(中华城北区),思明区,118.081925,24.453975,"118.081925,24.453975",118.07695079756387,24.456621499009504
B0LAR1EEVC,教师公寓,商务住宅;住宅区;宿舍,120303,镇海路与石泉路交叉口南140米,思明区,118.085675,24.450375,"118.085675,24.450375",118.08070019910876,24.453018418305508
B02500S7Z6,定安小区,商务住宅;住宅区;住宅小区,120302,中华街道思南社区思明南路226号(镇海路地铁站3A口步行370米),思明区,118.081712,24.452219,"118.081712,24.452219",118.07673799326616,24.45486532940692
B0L29SR9VL,先锋营街56号,商务住宅;住宅区;住宅小区,120302,幸福路与北门外街交叉口西南100米,思明区,118.085647,24.458527,"118.085647,24.458527",118.08067161681426,24.461171934633448
B0MDMXZQBS,厦门市公安局宿舍,商务住宅;住宅区;宿舍,120303,故宫路与新华路交叉口东北160米,思明区,118.085025,24.458325,"118.085025,24.458325",118.08004972648241,24.460970254838088
B0J6YBVSG7,故宫路26号,商务住宅;住宅区;住宅小区,120302,鹭江街道故宫路28-1号,思明区,118.084566,24.458544,"118.084566,24.458544",118.07959079316564,24.461189568686216
B025003Z9Y,海景公寓,商务住宅;住宅区;住宅小区,120302,中山路步行街与太平路交叉口东北50米,思明区,118.081977,24.451634,"118.081977,24.451634",118.07700294922626,24.45428002659345
B0FFGHOAX9,先锋营小区,商务住宅;住宅区;住宅小区,120302,菜妈街58号,思明区,118.085848,24.459394,"118.085848,24.459394",118.08087252779521,24.462038978977517
B0JGLXLB6T,鸿山小区二期,商务住宅;住宅区;住宅小区,120302,思明南路275号(镇海路地铁站2号口步行180米),思明区,118.083986,24.450008,"118.083986,24.450008",118.07901152587114,24.45265235617494
B0L0YN5GLR,丹霞宫巷9号,商务住宅;住宅区;住宅小区,120302,故宫路与大同路交叉口北80米,思明区,118.083825,24.458325,"118.083825,24.458325",118.07884996389079,24.460970992225526
B0LA1U3CPI,中国社区,商务住宅;住宅区;住宅小区|商务住宅;住宅区;社区中心,120302|120304,石泉路与镇海路交叉口东南220米,思明区,118.087313,24.449972,"118.087313,24.449972",118.08233807097028,24.45261448899678
B0MD5LWJIN,思明南路39号,商务住宅;住宅区;住宅小区,120302,妙香路与思明南路交叉口东北20米,思明区,118.081272,24.454586,"118.081272,24.454586",118.0762979736878,24.457233096148073
B0250043MV,鸿山大厦北座,商务住宅;住宅区;住宅小区,120302,思明南路287号(镇海路地铁站2号口步行200米),思明区,118.084155,24.449795,"118.084155,24.449795",118.07918050479994,24.452439209481906
B0LGKXHBJ9,儿童友好社区,商务住宅;住宅区;住宅小区,120302,思明东路与古城西路交叉口北20米,思明区,118.081975,24.456925,"118.081975,24.456925",118.07700056949678,24.459572002943993
B0LKL19557,华新路11号,商务住宅;住宅区;住宅小区,120302,公园西路与北门外街交叉口北120米,思明区,118.08723,24.459069,"118.087230,24.459069",118.08225442165319,24.461713203357075
B02500423Q,鸿图大厦,商务住宅;住宅区;住宅小区,120302,中华街道镇海社区思明南路285号(镇海路地铁站2号口步行300米),思明区,118.084678,24.449424,"118.084678,24.449424",118.079703427791,24.452067817888437
B0KU7HCV7V,国贸宿舍,商务住宅;住宅区;住宅区,120300,故宫路与菜妈街交叉口南80米,思明区,118.083931,24.458726,"118.083931,24.458726",118.07895591122889,24.461371996722484
B0L1YBD4AH,星空美墅,商务住宅;住宅区;住宅区,120300,思明东路与古城西路交叉口西北80米,思明区,118.082803,24.457913,"118.082803,24.457913",118.07782825163405,24.460559597110677
B0LR46P3X8,中山路179号,商务住宅;住宅区;住宅小区,120302,中山路步行街与思明南路交叉口西40米,思明区,118.080888,24.454074,"118.080888,24.454074",118.07591414968232,24.456721295752196
B0KU95HGKW,测绘局宿舍,商务住宅;住宅区;宿舍,120303,图强路与蓼花路交叉口东北20米,思明区,118.090966,24.456705,"118.090966,24.456705",118.08599071161075,24.459347268005338
B0IAXG0ZQ1,第七市场小区,商务住宅;住宅区;住宅小区,120302,第七市场18号,思明区,118.081634,24.457098,"118.081634,24.457098",118.0766596685174,24.459745284239595
B0FFGVHLFO,定安小区二期,商务住宅;住宅区;住宅小区,120302,养元宫巷与青石巷交叉口北40米,思明区,118.081365,24.452046,"118.081365,24.452046",118.07639112365491,24.45469255560344
B0JB31GDVS,Hues yand花园别墅,商务住宅;住宅区;别墅,120301,蓼花路与共和路交叉口东南40米,思明区,118.090969,24.457005,"118.090969,24.457005",118.08599369040864,24.45964732158002
B0JDMUO76E,厦门医学院石泉宿舍,商务住宅;住宅区;宿舍,120303,中华街道白鹿路67号402室,思明区,118.088603,24.449395,"118.088603,24.449395",118.0836280816565,24.452036793225176
B0FFF9RAU6,瑞泉山庄,商务住宅;住宅区;住宅小区,120302,石泉路12号之1号,思明区,118.086647,24.448957,"118.086647,24.448957",118.08167219188101,24.45159962970012
B0KU1UP1ZN,外贸局单位宿舍,商务住宅;住宅区;宿舍,120303,双莲池街67号,思明区,118.082968,24.458685,"118.082968,24.458685",118.07799315097049,24.461331623516866
B0M6SA3I6G,局口横巷11号,商务住宅;住宅区;住宅小区,120302,中华街道局口街19号之1号,思明区,118.080632,24.454443,"118.080632,24.454443",118.07565821997468,24.457090563386583
B0L3GRHRD4,华新路50号居民楼,商务住宅;住宅区;住宅小区,120302,华新路50号,思明区,118.086952,24.459493,"118.086952,24.459493",118.08197640965857,24.462137416802843
B0KU7HC81M,定安路34-36号小区,商务住宅;住宅区;住宅小区,120302,中山路步行街与太平路交叉口西南60米,思明区,118.080186,24.453588,"118.080186,24.453588",118.07521245779719,24.456235760479093
B0M61AGCZK,邮电宿舍收发室,商务住宅;住宅区;宿舍,120303,虎园路与白鹿路交叉口东80米,思明区,118.091825,24.453775,"118.091825,24.453775",118.08685004664214,24.456416472888858
B0MDNOG5EJ,林宅,商务住宅;住宅区;住宅区,120300,定安路与太平路交叉口南40米,思明区,118.080846,24.453057,"118.080846,24.453057",118.0758722384509,24.45570414021596
B0KRDMGSJN,定安路35-41号小区,商务住宅;住宅区;住宅小区,120302,定安路与太平路交叉口西80米,思明区,118.080189,24.453249,"118.080189,24.453249",118.07521548094566,24.455896695318813
B0FFINDCGL,厦门美墅,商务住宅;住宅区;别墅,120301,公园西路与华新路交叉口东北80米,思明区,118.088446,24.459275,"118.088446,24.459275",118.08347037062023,24.461918680504507
B0FFF5IYKH,图强路小区,商务住宅;住宅区;住宅小区,120302,图强路与蓼花路交叉口东北120米,思明区,118.091747,24.457173,"118.091747,24.457173",118.08677178951866,24.459815117129306
B0FFFTHFB1,双莲池社区,商务住宅;住宅区;住宅小区,120302,[],思明区,118.083025,24.458941,"118.083025,24.458941",118.0780501172755,24.46158763086942
B0MDNSEBFP,开元街道华新路19号,商务住宅;住宅区;住宅小区,120302,华新路18号,思明区,118.087887,24.459436,"118.087887,24.459436",118.08291136665929,24.462079958462333
B0FFH1OMIR,双莲池科普示范楼苑,商务住宅;住宅区;住宅小区,120302,双莲池街44号,思明区,118.082712,24.458872,"118.082712,24.458872",118.07773720815611,24.461518832794756
B025003ZRO,白鹿大厦,商务住宅;住宅区;住宅小区,120302,白鹿路67号,思明区,118.089142,24.449305,"118.089142,24.449305",118.08416709948861,24.451946553207552
B0KU55HOLT,菜妈街1-39号小区,商务住宅;住宅区;住宅小区,120302,菜妈街与故宫路交叉口东100米,思明区,118.085145,24.459603,"118.085145,24.459603",118.08016961474115,24.46224841440402
B025002U98,怡和大厦,商务住宅;住宅区;住宅小区,120302,共和路22号(中山公园地铁站3B口步行210米),思明区,118.091512,24.457655,"118.091512,24.457655",118.08653671815048,24.4602972725937
B0FFH19Q1L,九竹巷,商务住宅;住宅区;住宅区,120300,镇海路地铁站2号口步行330米,思明区,118.084855,24.448972,"118.084855,24.448972",118.0798804282465,24.451615626372163
B0M6G9OZUN,白鹭宾馆员工宿舍,商务住宅;住宅区;宿舍,120303,石泉路与白鹿路交叉口西180米,思明区,118.088175,24.449325,"118.088175,24.449325",118.08320008783511,24.451966966407905
B0MAV652FH,六仙雅居,商务住宅;住宅区;住宅小区,120302,养元宫巷与青石巷交叉口南40米,思明区,118.081475,24.451325,"118.081475,24.451325",118.07650113744843,24.453971338451016
B0LKRK4L3M,员工之家,商务住宅;住宅区;宿舍,120303,石泉路与白鹿路交叉口西180米,思明区,118.088125,24.449375,"118.088125,24.449375",118.08315008496193,24.452016998172226
B0FFF4J6ZZ,厦门市人防办镇海社区百姓课堂文体活动中心,商务住宅;住宅区;社区中心,120304,石泉路17号附近,思明区,118.087266,24.44878,"118.087266,24.448780",118.08229115932993,24.451422286570565
B0L0MN7VP8,思南社区,商务住宅;住宅区;住宅小区,120302,定安路与太平路交叉口西南80米,思明区,118.080485,24.452766,"118.080485,24.452766",118.07551139757028,24.455413369268353
B0L1CY5HQN,德仁里,商务住宅;住宅区;住宅小区,120302,思明东路与古城西路交叉口西北100米,思明区,118.081245,24.457392,"118.081245,24.457392",118.07627078151104,24.460039629020365
B0FFF4K6DK,溪岸社区文体活动室,商务住宅;住宅区;社区中心,120304,公园西路55-57中间,思明区,118.088455,24.459545,"118.088455,24.459545",118.08347935120554,24.462188725026994
B02500415Q,百批公寓,商务住宅;住宅区;住宅小区,120302,幸福路4号,思明区,118.084496,24.460024,"118.084496,24.460024",118.07952070022199,24.46266987694895
B0MDGDPUN0,华新路34号,商务住宅;住宅区;住宅小区,120302,华新路与斗西路交叉口西南40米,思明区,118.088312,24.45993,"118.088312,24.459930",118.08333632394012,24.46257385626401
B0GKXAFHRQ,邮电宿舍(海岸街),商务住宅;住宅区;宿舍,120303,海岸街76号,思明区,118.08268,24.459186,"118.082680,24.459186",118.07770519463399,24.461832911380704
B0HB6UL4I1,华驿服务公寓(中山公园店),商务住宅;住宅区;住宅小区|住宿服务;旅馆招待所;旅馆招待所,120302|100200,虎园路4-8号(中山公园地铁站2号口步行450米),思明区,118.092446,24.453457,"118.092446,24.453457",118.08747118185119,24.456098248200842
B0250042JZ,故宫裕景,商务住宅;住宅区;住宅小区,120302,故宫路69号,思明区,118.083415,24.460149,"118.083415,24.460149",118.07843993010476,24.462795586468932
B0FFGD09NL,文安社区,商务住宅;住宅区;住宅小区,120302,定安路与太平路交叉口西100米,思明区,118.07991,24.453313,"118.079910,24.453313",118.07493659159383,24.45596093366525
B0MBFS2ZWO,内武庙33号,商务住宅;住宅区;住宅小区,120302,内武庙街33号,思明区,118.081767,24.458486,"118.081767,24.458486",118.07679252457062,24.46113343722643
B0MDN6D1X6,厦门宾馆员工宿舍,商务住宅;住宅区;宿舍,120303,文园路与虎园路交叉口北20米,思明区,118.092425,24.455275,"118.092425,24.455275",118.08745004702158,24.457916588341078
B0KU5CO4BA,六中教师宿舍,商务住宅;住宅区;宿舍,120303,海岸后街54号,思明区,118.082824,24.459566,"118.082824,24.459566",118.0778491269555,24.462212880174235
B0LG0Z055S,鹭泉小区,商务住宅;住宅区;住宅小区,120302,石泉路11号-27号,思明区,118.087795,24.448577,"118.087795,24.448577",118.08282015017346,24.451218997196875
B0KGDAOAIO,中华街道镇海社区,商务住宅;住宅区;住宅小区,120302,思明南路303号(镇海路地铁站2号口步行330米),思明区,118.084342,24.448682,"118.084342,24.448682",118.07936754618792,24.451325882633434
B0HU1CD0BM,文安房管所宿舍,商务住宅;住宅区;宿舍,120303,相公宫巷41-43号(镇海路地铁站1号口步行270米),思明区,118.080807,24.451167,"118.080807,24.451167",118.07583338892461,24.453813818338215
B0I1018O0Z,广悦建兴管理公房,商务住宅;住宅区;住宅小区,120302,思明北路与思明西路交叉口西北60米,思明区,118.079982,24.456093,"118.079982,24.456093",118.07500836165276,24.458741385989423
B0L3AOYDXD,墅集壹号,商务住宅;住宅区;住宅区,120300,后岸巷与思东横巷交叉口西南80米,思明区,118.079611,24.456183,"118.079611,24.456183",118.07463751304438,24.458831707812156
B0KU57RJJW,聋哑学校宿舍,商务住宅;住宅区;宿舍,120303,大字酒巷七号之一(通奉第巷十一号正对面),思明区,118.079317,24.452481,"118.079317,24.452481",118.0743439090313,24.455129272281113
B0MGX5YBEP,福茂阁,商务住宅;住宅区;住宅小区,120302,福茂宫街35-5号,思明区,118.080744,24.458484,"118.080744,24.458484",118.07576988671123,24.461132211797793
B0FFHRRK8V,虎溪岩路15-27号小区,商务住宅;住宅区;住宅小区,120302,虎园路与虎溪岩路交叉口南220米,思明区,118.092589,24.451082,"118.092589,24.451082",118.08761438114723,24.453722770279924
B0250040S1,百家村花园,商务住宅;住宅区;住宅小区,120302,深田路28-40号(中山公园地铁站3B口步行340米),思明区,118.092879,24.458131,"118.092879,24.458131",118.0879039352163,24.460772997121037
B0FFJ2W0LW,南中广场公寓,商务住宅;住宅区;住宅小区,120302,中华街道大中路南中广场公寓3楼,思明区,118.078851,24.454735,"118.078851,24.454735",118.07387796157875,24.457384087571196
B0MGB9U7KX,启泰国际,商务住宅;住宅区;住宅小区|商务住宅;楼宇;商务写字楼,120302|120201,深田路与共和路交叉口东北80米,思明区,118.091775,24.458475,"118.091775,24.458475",118.08679970043961,24.461117344640705
B02500409C,特房G01新座,商务住宅;住宅区;住宅小区,120302,厦禾路385-413号,思明区,118.084714,24.461719,"118.084714,24.461719",118.07973853712917,24.464365046337942
B0KAMH33WU,财政宿舍,商务住宅;住宅区;宿舍,120303,虎园路19号之1号,思明区,118.092714,24.450316,"118.092714,24.450316",118.08773946197876,24.452956596012452
B025004C9V,中山海景广场,商务住宅;住宅区;住宅小区,120302,中山路108-124号泰山路与定安路交汇处(中山路巴黎春天旁),思明区,118.078085,24.452976,"118.078085,24.452976",118.07311246378697,24.455625438988772
B0I3MUPAZJ,先锋小区,商务住宅;住宅区;住宅小区,120302,思明南路288-之13号,思明区,118.083819,24.44732,"118.083819,24.447320",118.07884475641913,24.449963953001653
B0MDXL0P86,鹭岛椰风,商务住宅;住宅区;住宅小区,120302,南大沟墘巷与大中路交叉口东北20米,思明区,118.078625,24.454125,"118.078625,24.454125",118.07365211330864,24.456774172043623
B0KU1HNNVB,虎溪岩路1-3号小区,商务住宅;住宅区;住宅小区,120302,钟鼓山隧道与成功大道出口交叉口西200米,思明区,118.092378,24.449582,"118.092378,24.449582",118.08740344723422,24.45222254131377
B0FFH26FMF,浅水湾,商务住宅;住宅区;住宅区,120300,厦禾路316号香港广场,思明区,118.08039,24.459298,"118.080390,24.459298",118.07541596543118,24.46194663731502
B0LR215P2D,润物东方,商务住宅;住宅区;住宅小区,120302,思明区局中北街147号,思明区,118.078356,24.454793,"118.078356,24.454793",118.07338319696672,24.457442532223983
B0LK6HKNOT,虎溪岩,商务住宅;住宅区;住宅小区,120302,虎园路17-19号附近,思明区,118.092408,24.44983,"118.092408,24.449830",118.08743343520906,24.452470580425558
B025003W6A,思明苑,商务住宅;住宅区;住宅小区,120302,思明南路298前列,思明区,118.084436,24.446887,"118.084436,24.446887",118.0794616564503,24.449530482820563
B0FFJ93AOP,墅苑,商务住宅;住宅区;别墅,120301,中兴路与公园东路交叉口东南40米,思明区,118.092157,24.459227,"118.092157,24.459227",118.08718171230484,24.461869374944843
B0MDUO20AH,大埕头3号,商务住宅;住宅区;住宅小区,120302,埕头巷3号,思明区,118.078429,24.456164,"118.078429,24.456164",118.07345606234013,24.458813718573207
B0FFHKFU5V,源昌国际城2期,商务住宅;住宅区;住宅小区,120302,厦禾路261-271号,思明区,118.08109,24.460963,"118.081090,24.460963",118.0761155802779,24.463611388233943
B025003I7D,望海花园,商务住宅;住宅区;住宅小区,120302,中华街道思南社区寿山路4号,思明区,118.083146,24.446869,"118.083146,24.446869",118.0781719532035,24.449513308989843
B0FFHDLSEL,亿力音乐花园琴园,商务住宅;住宅区;住宅小区,120302,开元街道美仁社区厦禾路449-453号,思明区,118.087524,24.462356,"118.087524,24.462356",118.08254816982904,24.465000647207553
B0KRUYZ82Y,化工宿舍,商务住宅;住宅区;宿舍,120303,角尾路与角滨路交叉口东北20米,思明区,118.082268,24.461334,"118.082268,24.461334",118.07729316127585,24.463981584281697
B0KU9AHE3Z,角尾路8号小区,商务住宅;住宅区;住宅小区,120302,角尾路与故宫路交叉口西80米,思明区,118.083135,24.461421,"118.083135,24.461421",118.07815990989208,24.4640679994896
B0LRPXSK1O,厦门税务职工宿舍,商务住宅;住宅区;宿舍,120303,后河路与溪岸路交叉口东南40米,思明区,118.089275,24.461375,"118.089275,24.461375",118.0842992365658,24.464018711781698
B025004150,源昌国际城,商务住宅;住宅区;住宅小区,120302,厦禾路263号,思明区,118.081244,24.461191,"118.081244,24.461191",118.0762695087177,24.463839311484307
B0I1A5CTYE,山国工夫茶人才公寓,商务住宅;住宅区;住宅小区,120302,禾太街116号,思明区,118.088279,24.461776,"118.088279,24.461776",118.08330319141426,24.46442019924541
B0FFGD04I3,角尾路小区,商务住宅;住宅区;住宅小区,120302,角尾路与故宫路交叉口西80米,思明区,118.083086,24.461375,"118.083086,24.461375",118.07811092606715,24.464022024347017
B025004156,源通中心,商务住宅;住宅区;住宅小区,120302,厦禾路276号,思明区,118.079024,24.459449,"118.079024,24.459449",118.07405054181909,24.462098794355377
B0KURA1QHR,麦仔埕巷1-34之1号小区,商务住宅;住宅区;住宅小区,120302,大同路与思明北路交叉口西120米,思明区,118.078422,24.457471,"118.078422,24.457471",118.0734489718402,24.460120962410024
B0MD3OHTAH,斗涵巷38号,商务住宅;住宅区;住宅小区,120302,厦禾路与豆仔尾路交叉口西南60米,思明区,118.088017,24.461758,"118.088017,24.461758",118.08304119651811,24.46440231301885
B0L0AKB5DO,深田路4号,商务住宅;住宅区;住宅小区,120302,中兴路与深田路交叉口西北20米,思明区,118.093846,24.457898,"118.093846,24.457898",118.08887118473508,24.460539749745475
B0FFF53YJG,亿力音乐花园,商务住宅;住宅区;住宅小区,120302,厦禾路423-499号,思明区,118.088142,24.462499,"118.088142,24.462499",118.08316614098382,24.46514338777156
B02500409G,华盛花园,商务住宅;住宅区;住宅小区,120302,故宫路94之1-12,思明区,118.084216,24.462476,"118.084216,24.462476",118.07924058023569,24.46512248524862
B02500SZOU,百家阁,商务住宅;住宅区;住宅小区,120302,百家村路58号之1号,思明区,118.094401,24.458182,"118.094401,24.458182",118.08942631843121,24.460823702060658
B0M6F90IIL,幸福家,商务住宅;住宅区;住宅小区,120302,思明南路与寿山路交叉口东南100米,思明区,118.085075,24.446625,"118.085075,24.446625",118.08010055928392,24.449268049544838
B0FFHMQ46X,洛杉矶,商务住宅;住宅区;住宅小区,120302,角滨路与角尾路交叉口西60米,思明区,118.08139,24.46111,"118.081390,24.461110",118.07641546331831,24.46375818690184
B0250043V4,源隆花园,商务住宅;住宅区;住宅小区,120302,角滨路11号,思明区,118.08274,24.462097,"118.082740,24.462097",118.07776496836938,24.46474438844177
B0FFGG83AF,源昌国际城1期,商务住宅;住宅区;住宅小区,120302,小学路165-1号,思明区,118.081607,24.461825,"118.081607,24.461825",118.07663233770758,24.46447315170279
B0FFHIXB2M,融禄财富,商务住宅;住宅区;住宅区|金融保险服务;金融保险服务机构;金融保险机构,120300|160000,厦禾路269号104单元,思明区,118.081479,24.460827,"118.081479,24.460827",118.07650445295629,24.463475069875084
B025003ZMV,故宫新城,商务住宅;住宅区;住宅小区,120302,故宫路85号,思明区,118.083263,24.462208,"118.083263,24.462208",118.07828782024191,24.46485505305873
B0MBFS4396,空中花园(中华街道),商务住宅;住宅区;住宅小区,120302,定安路与泰山路交叉口东北20米,思明区,118.077633,24.453356,"118.077633,24.453356",118.07266067167653,24.45600592078577
B0JKLH2OGQ,故宫小区,商务住宅;住宅区;住宅小区,120302,故宫路96-102号,思明区,118.083756,24.462241,"118.083756,24.462241",118.07878069809566,24.46488773556039
B0MG3OARW9,白鹤路10号,商务住宅;住宅区;住宅小区,120302,白鹤路10-1号,思明区,118.093033,24.459939,"118.093033,24.459939",118.08805783921271,24.46258128649601
B025002S78,银行家园,商务住宅;住宅区;住宅小区,120302,角滨路9号,思明区,118.082067,24.462184,"118.082067,24.462184",118.07709216226472,24.46483187878618
B0L3VRJF5H,鹤寿文苑,商务住宅;住宅区;住宅小区|风景名胜;风景名胜相关;旅游景点,120302|110000,公园东路与白鹤路交叉口东北40米,思明区,118.092648,24.460043,"118.092648,24.460043",118.08767274884403,24.462685395794058
B0250043RU,外贸土产新村,商务住宅;住宅区;住宅小区,120302,厦港街道鸿山社区寿彭路5-9、15-17号,思明区,118.083432,24.446296,"118.083432,24.446296",118.07845792181142,24.448940008778166
B0M6S53DZB,开元街道后河路8号,商务住宅;住宅区;住宅小区,120302,溪岸路与公园西路交叉口东北60米,思明区,118.090115,24.461651,"118.090115,24.461651",118.0851392683331,24.46429444426831
B0HDS76YM8,大同社区,商务住宅;住宅区;住宅小区,120302,二王街21号,思明区,118.078316,24.458413,"118.078316,24.458413",118.07334295664265,24.46106322672112
B0L0PL1XNJ,东门庭苑,商务住宅;住宅区;住宅区,120300,中兴路与尚武路交叉口北60米,思明区,118.093812,24.459052,"118.093812,24.459052",118.08883709279024,24.461693964227443
B0MG0CH4AR,南风里,商务住宅;住宅区;住宅小区,120302,白鹤路与公园东路交叉口东北80米,思明区,118.093075,24.460125,"118.093075,24.460125",118.08809983531495,24.4627673102437
B0KR69ZGRQ,和衷里,商务住宅;住宅区;住宅小区,120302,中国人民解放军第174医院西,思明区,118.094249,24.459092,"118.094249,24.459092",118.08927420929315,24.461733891662895
B0FFGFGF60,建委宿舍,商务住宅;住宅区;宿舍,120303,公园北路与溪岸路交叉口西120米,思明区,118.091525,24.461625,"118.091525,24.461625",118.08654943459126,24.464267979787394
B0ID6MY75E,后河路75号,商务住宅;住宅区;住宅小区,120302,冠成大厦附近,思明区,118.09077,24.462154,"118.090770,24.462154",118.08579429641243,24.464797308526165
B0MUZS64IR,金盛园,商务住宅;住宅区;住宅小区,120302,角滨路9号之28号,思明区,118.081904,24.462214,"118.081904,24.462214",118.07692921193691,24.464862002196544
B0L01RG74W,后河路111号,商务住宅;住宅区;住宅小区,120302,厦禾路与美头山路交叉口东南60米,思明区,118.090899,24.46218,"118.090899,24.462180",118.08592330967475,24.464823271130822
B0KU9CJQF0,溪岸路63号小区,商务住宅;住宅区;住宅小区,120302,公园北路与溪岸路交叉口西60米,思明区,118.092089,24.461513,"118.092089,24.461513",118.08711353563297,24.464155800964683
B0FFM5C3FX,溪岸社区党群服站,商务住宅;住宅区;社区中心,120304,溪岸路与公园北路交叉口西北20米,思明区,118.092456,24.461577,"118.092456,24.461577",118.08748059987887,24.464219716518013
B025003ZV4,叉车总厂宿舍(小学路),商务住宅;住宅区;宿舍,120303,禾祥西路7号之1附近,思明区,118.078874,24.461087,"118.078874,24.461087",118.07390049411832,24.463737215937027
B02500SXF6,美仁宫大厦公寓,商务住宅;住宅区;住宅小区,120302,溪岸街78号,思明区,118.092615,24.462179,"118.092615,24.462179",118.08763958844862,24.464821783409512
B0GUNHHOTL,公园东路安置房,商务住宅;住宅区;住宅小区,120302,开元街道深田社区公园东路96号之2-5,思明区,118.093866,24.461149,"118.093866,24.461149",118.08889095622587,24.463791328551373
B0MAYL36B1,白鹤路1号,商务住宅;住宅区;住宅小区,120302,白鹤路5号,思明区,118.094968,24.459635,"118.094968,24.459635",118.08999338681757,24.462276876338954
B0250040RU,半山别墅,商务住宅;住宅区;住宅区,120300,鹤寿路与公园东路交叉口东200米,思明区,118.09475,24.4603,"118.094750,24.460300",118.08977527068103,24.462942026977224
B0FFI8O33D,厦门嘉盛豪园,商务住宅;住宅区;住宅区,120300,湖滨西路与小学路交叉口西北120米,思明区,118.078678,24.461757,"118.078678,24.461757",118.07370453915478,24.464407505120235
B0FFL87RVM,大同雅苑,商务住宅;住宅区;住宅小区,120302,小学路90-5-6号,思明区,118.077944,24.461396,"118.077944,24.461396",118.0729709308579,24.464047094299907
B02500S599,国贸宿舍,商务住宅;住宅区;宿舍,120303,小学路90-4号,思明区,118.077531,24.461476,"118.077531,24.461476",118.07255814248164,24.464127486617592
B025003ZHW,金湖花园,商务住宅;住宅区;住宅小区,120302,天湖路10号,思明区,118.087132,24.469136,"118.087132,24.469136",118.0821557036386,24.471782011143798
B0250043ML,国贸花园,商务住宅;住宅区;住宅小区,120302,天湖路55-69号,思明区,118.088855,24.470164,"118.088855,24.470164",118.08387859151172,24.472809404144517
B0FFF5B8JB,房管局宿舍,商务住宅;住宅区;宿舍,120303,天湖路24号,思明区,118.088936,24.469321,"118.088936,24.469321",118.08395965395918,24.47196622794071
B0250041XY,丰景苑,商务住宅;住宅区;住宅小区,120302,天湖路77-79号,思明区,118.08958,24.469981,"118.089580,24.469981",118.08460363223338,24.472626084495644
B0KU97X51S,天湖路83-87号小区,商务住宅;住宅区;住宅小区,120302,天湖路与白鹭洲路辅路交叉口西180米,思明区,118.089558,24.470407,"118.089558,24.470407",118.0845816003682,24.47305216487091
B0250043U6,东卉花园,商务住宅;住宅区;住宅小区,120302,筼筜路2-34号,思明区,118.086371,24.474067,"118.086371,24.474067",118.0813944122352,24.476714225099418
B025002LJ1,佳苑星河,商务住宅;住宅区;住宅小区,120302,天湖路115号,思明区,118.090164,24.4706,"118.090164,24.470600",118.08518762865457,24.473244973643467
B0FFLECAB3,糖酒小区,商务住宅;住宅区;住宅小区,120302,湖滨南路32-38号,思明区,118.086396,24.466794,"118.086396,24.466794",118.08141993294717,24.469439984997702
B0KR5HW0DT,燃气宿舍,商务住宅;住宅区;宿舍,120303,天湖路与白鹭洲路辅路交叉口西120米,思明区,118.090176,24.470145,"118.090176,24.470145",118.08519966240766,24.472789892596506
B0FFGFG8Q9,怡湖楼,商务住宅;住宅区;住宅区,120300,天湖路93-95号,思明区,118.090207,24.469896,"118.090207,24.469896",118.0852306829822,24.472540839506074
B0FFH193Z0,厦门市生态环境局综合楼,商务住宅;住宅区;住宅小区,120302,湖滨南路辅路与美湖路交叉口西南40米,思明区,118.088518,24.467709,"118.088518,24.467709",118.08354176411275,24.47035412871022
B0KRT5XPPU,筼筜路66号,商务住宅;住宅区;住宅小区,120302,筼筜路与官任路交叉口东南100米,思明区,118.087282,24.473992,"118.087282,24.473992",118.08230534513183,24.476638751695752
B0250040KO,环保宿舍,商务住宅;住宅区;宿舍,120303,湖滨南路56号之三,思明区,118.088692,24.467596,"118.088692,24.467596",118.08371577362014,24.47024103525202
B0LKS1JOXE,市政西北院,商务住宅;住宅区;住宅小区,120302,天湖路与白鹭洲路辅路交叉口西北120米,思明区,118.090225,24.470375,"118.090225,24.470375",118.08524865008565,24.473019914089146
B025002LY4,金秋豪园,商务住宅;住宅区;住宅小区,120302,白鹭洲501-503,思明区,118.090825,24.470687,"118.090825,24.470687",118.08584868892437,24.473331763048556
B0250043NQ,港龙花园,商务住宅;住宅区;住宅小区,120302,筼筜路36-64号,思明区,118.087908,24.474573,"118.087908,24.474573",118.0829312771861,24.477219552469442
B0M63CA043,筼筜路68号,商务住宅;住宅区;住宅小区,120302,筼筜路与官任路交叉口东南80米,思明区,118.087272,24.474295,"118.087272,24.474295",118.08229532390351,24.476941806580975
B0LR3UCREH,天湖路电子城宿舍,商务住宅;住宅区;宿舍,120303,美湖路与湖滨南路辅路交叉口南40米,思明区,118.088741,24.467587,"118.088741,24.467587",118.08376477492422,24.470232013090264
B0FFF39PBI,豆仔苑,商务住宅;住宅区;住宅小区,120302,豆仔尾路332-336号,思明区,118.086861,24.466248,"118.086861,24.466248",118.08188493068991,24.46889365135955
B0L3F55OVH,湖滨南路48-3号,商务住宅;住宅区;住宅小区,120302,厦门民生银行大厦附近,思明区,118.088045,24.466872,"118.088045,24.466872",118.08306882810011,24.46951719328031
B0M63CACWU,筼筜路70号,商务住宅;住宅区;住宅小区,120302,筼筜路与官任路交叉口东南40米,思明区,118.087133,24.474639,"118.087133,24.474639",118.08215630763975,24.477285931252784
B0250043NA,华新苑,商务住宅;住宅区;住宅小区,120302,筼筜路15-65号,思明区,118.086105,24.475135,"118.086105,24.475135",118.08112836426564,24.477782542641165
B02500423Z,宝悦公寓,商务住宅;住宅区;住宅小区,120302,湖滨南路70-1、70-2号,思明区,118.090119,24.467889,"118.090119,24.467889",118.08514281994553,24.470533529248893
B025003YZ5,吉祥家园,商务住宅;住宅区;住宅小区,120302,建业路3号(建业路地铁站4号口步行470米),思明区,118.083533,24.474767,"118.083533,24.474767",118.07855684977062,24.477416016899724
B0G0C9XXVA,美仁新村北区,商务住宅;住宅区;住宅小区,120302,禾祥西路116-124号,思明区,118.088392,24.466033,"118.088392,24.466033",118.08341588461026,24.468677894715505
B025004CEI,美兰大厦,商务住宅;住宅区;住宅区,120300,美仁新村18号,思明区,118.088913,24.466262,"118.088913,24.466262",118.08393687348045,24.468906713559587
B0L1AUJF6O,财政宿舍湖滨南路78号之五,商务住宅;住宅区;宿舍,120303,湖滨南路与白鹭洲路交叉口西80米,思明区,118.090575,24.468425,"118.090575,24.468425",118.08559882398555,24.471069462431462
B0250043LO,惠盛花园,商务住宅;住宅区;住宅小区,120302,豆仔尾路168号之2-4,思明区,118.086697,24.465564,"118.086697,24.465564",118.08172099332445,24.468209616323627
B0250042K3,建兴小区,商务住宅;住宅区;住宅小区,120302,建兴路1-25号,思明区,118.087413,24.475676,"118.087413,24.475676",118.08243621689074,24.478322965401965
B0250041T3,美湖花园,商务住宅;住宅区;住宅小区,120302,美湖路71-79号,思明区,118.089923,24.46672,"118.089923,24.466720",118.08494688886417,24.469364399476706
B0250040KT,美仁新村,商务住宅;住宅区;住宅小区,120302,禾祥西路116-124号,思明区,118.088837,24.465922,"118.088837,24.465922",118.0838608963281,24.468566686215308
B0KKS54461,帝景苑2期,商务住宅;住宅区;住宅小区,120302,湖滨南路辅路与故宫路交叉口北100米,思明区,118.082104,24.4674,"118.082104,24.467400",118.07712877555969,24.470048760487533
B0250041BE,利华苑,商务住宅;住宅区;住宅小区,120302,筼筜路3之19-23,思明区,118.082459,24.474902,"118.082459,24.474902",118.07748312818283,24.477551768372674
B0FFLQAOFC,滨南燃料宿舍,商务住宅;住宅区;宿舍,120303,湖滨南路18号,思明区,118.083406,24.466371,"118.083406,24.466371",118.07843048486325,24.469018685126798
B0FFI2FI1G,华联宿舍,商务住宅;住宅区;住宅小区,120302,豆仔尾路与禾祥西路交叉口西北100米,思明区,118.087204,24.465825,"118.087204,24.465825",118.08222793730394,24.46847040782168
B025004B15,国盟新天地,商务住宅;住宅区;住宅小区,120302,建业路10-12(建业路地铁站4号口步行300米),思明区,118.084429,24.475839,"118.084429,24.475839",118.07945257573546,24.47848762413514
B0FFHLHNFQ,厦门市政工程公司宿舍,商务住宅;住宅区;宿舍,120303,湖滨南路70-6号70-7号,思明区,118.09043,24.467369,"118.090430,24.467369",118.085453885304,24.470013331063726
B0FFF589OY,港务局宿舍,商务住宅;住宅区;住宅小区,120302,湖滨南路14-18号,思明区,118.083039,24.465986,"118.083039,24.465986",118.0780636069077,24.46863386404356
B0H2PCRHL2,财政宿舍,商务住宅;住宅区;宿舍,120303,湖滨南路78号之5-6,思明区,118.090623,24.467408,"118.090623,24.467408",118.08564690222671,24.470052272265846
B025004CER,十一中宿舍楼,商务住宅;住宅区;宿舍,120303,禾祥西路37号,思明区,118.085131,24.465267,"118.085131,24.465267",118.08015520966431,24.46791342176859
B025002PN9,太湖新城,商务住宅;住宅区;住宅小区,120302,美湖东路与禾祥西路交叉口东北80米,思明区,118.090565,24.466452,"118.090565,24.466452",118.08558896487942,24.469096127265743
B0FFK5CAHP,官任国际社区,商务住宅;住宅区;住宅小区,120302,官任路与筼筜路交叉口北140米,思明区,118.086512,24.476082,"118.086512,24.476082",118.08153525334922,24.47872948217622
B0FFLJCNUB,思明纸箔厂宿舍,商务住宅;住宅区;宿舍,120303,湖滨南路18-3号,思明区,118.083582,24.465625,"118.083582,24.465625",118.0786064956244,24.468272440531372
B0M62HVSO5,夏商员工宿舍,商务住宅;住宅区;宿舍,120303,斗西路与禾祥西路交叉口北80米,思明区,118.085875,24.465325,"118.085875,24.465325",118.08089909779834,24.467971010880575
B025003ZNQ,武夷嘉园,商务住宅;住宅区;住宅小区,120302,建业路11-29号(建业路地铁站4号口步行290米),思明区,118.083249,24.475921,"118.083249,24.475921",118.07827283740627,24.47857039387833
B0FFF9X2EZ,帝景苑1期,商务住宅;住宅区;住宅小区,120302,湖滨南路辅路与故宫路交叉口西北160米,思明区,118.080985,24.467283,"118.080985,24.467283",118.0760101640774,24.469932573486307
B0250040KU,华鸿花园,商务住宅;住宅区;住宅小区,120302,禾祥西路319-341号,思明区,118.091438,24.466619,"118.091438,24.466619",118.08646206240772,24.469262878450458
B0L1DUUPEF,沧海叠苑,商务住宅;住宅区;住宅小区|风景名胜;风景名胜相关;旅游景点,120302|110000,禾祥西路与美湖路交叉口东北20米,思明区,118.089693,24.465863,"118.089693,24.465863",118.08471693510516,24.468507336955682
B0250041YS,祥云公寓,商务住宅;住宅区;住宅小区,120302,后江埭路67-69号,思明区,118.092431,24.46813,"118.092431,24.468130",118.08745512360555,24.470773863582906
B0MAV64GEL,宏都御府,商务住宅;住宅区;住宅小区,120302,美湖东路与白鹭洲路交叉口西北60米,思明区,118.091275,24.467275,"118.091275,24.467275",118.08629899193144,24.469919040558793
B0FFH21J40,航管宿舍,商务住宅;住宅区;宿舍,120303,湖滨南路12-1号,思明区,118.082063,24.465872,"118.082063,24.465872",118.07708789829692,24.468520526637487
B0I3NLDRBO,轮船宿舍,商务住宅;住宅区;宿舍,120303,禾祥西路33-101号,思明区,118.083796,24.46482,"118.083796,24.464820",118.07882050342236,24.46746716206386
B0250043MH,美仁新村南区,商务住宅;住宅区;住宅小区,120302,禾祥西路116-182美仁新村,思明区,118.09029,24.465471,"118.090290,24.465471",118.08531400867214,24.4681150520817
B0L0ZSETSE,官任路19号,商务住宅;住宅区;住宅小区,120302,官任路与建业路交叉口东160米,思明区,118.085547,24.476512,"118.085547,24.476512",118.08057033708485,24.47916007534403
B0JUBZFWWG,日报社小区,商务住宅;住宅区;住宅小区,120302,禾祥西路78号A,思明区,118.087956,24.464797,"118.087956,24.464797",118.08297997930298,24.467441874346118
B0L2N1III1,禾祥西路58号居民楼,商务住宅;住宅区;住宅小区,120302,禾祥西路58号,思明区,118.086892,24.464715,"118.086892,24.464715",118.08191603857054,24.467360369801174
B0250041GZ,特贸苑,商务住宅;住宅区;住宅小区,120302,官任路36-43号(建业路地铁站4号口步行240米),思明区,118.086092,24.477114,"118.086092,24.477114",118.08111522336085,24.4797618726055
B02500TOM1,繁荣广场2期,商务住宅;住宅区;住宅小区,120302,白鹭洲路154号繁荣,思明区,118.092203,24.467285,"118.092203,24.467285",118.08722714112646,24.469928777871115
B025002LDD,嘉禾公寓,商务住宅;住宅区;住宅小区,120302,豆仔尾路168号,思明区,118.088586,24.464637,"118.088586,24.464637",118.08360998545993,24.467281568723166
B0FFLCI5PL,职工之家,商务住宅;住宅区;宿舍,120303,湖滨南路91号非矿大厦,思明区,118.092856,24.470011,"118.092856,24.470011",118.08788007570203,24.47265507949114
B0LDAU6KII,厦门市财政局宿舍,商务住宅;住宅区;宿舍,120303,湖滨南路86号之2-之3号,思明区,118.09222,24.46769,"118.092220,24.467690",118.08724411512951,24.47033384286009
B0FFGJZSBC,美仁后社,商务住宅;住宅区;住宅小区,120302,禾祥西路与美湖东路交叉口东南20米,思明区,118.091307,24.46604,"118.091307,24.466040",118.08633108524334,24.46868381795955
B025003OOU,御景豪庭,商务住宅;住宅区;住宅小区,120302,建业路7号(建业路地铁站2号口步行210米),思明区,118.0832,24.476591,"118.083200,24.476591",118.07822380179299,24.479240535900715
B0250036Y0,西堤别墅,商务住宅;住宅区;别墅,120301,筼筜路1号-1-128,思明区,118.080895,24.475289,"118.080895,24.475289",118.0759196214494,24.47793998696458
B0L1BUYWEZ,毕星厂宿舍,商务住宅;住宅区;宿舍,120303,故宫东路与禾祥西路交叉口北60米,思明区,118.084318,24.464759,"118.084318,24.464759",118.07934239506491,24.46740582199887
B0FFF4J53S,禾祥社区,商务住宅;住宅区;住宅小区,120302,禾祥西路25-33号,思明区,118.083863,24.46462,"118.083863,24.464620",118.07888750258499,24.46726708424795
B0J6VM88OY,厦门机电公寓,商务住宅;住宅区;住宅小区,120302,禾祥西路56号之一之二,思明区,118.086987,24.464434,"118.086987,24.464434",118.08201105175229,24.467079273218847
B025003Z65,禾祥花园,商务住宅;住宅区;住宅小区,120302,故宫路109号,思明区,118.082352,24.464965,"118.082352,24.464965",118.07737687478769,24.467613162716116
B0250043PD,武夷花园,商务住宅;住宅区;住宅小区,120302,筼筜路5号之1-16(建业路地铁站2号口步行340米),思明区,118.081948,24.476048,"118.081948,24.476048",118.07697220275804,24.478698321371215
B0HDDCBL9B,厦门市思明区检察院宿舍(后江埭路),商务住宅;住宅区;宿舍,120303,后江埭路59-63号,思明区,118.092493,24.46773,"118.092493,24.467730",118.08751716458652,24.470373779481587
B02500T2AW,富华广场,商务住宅;住宅区;住宅小区,120302,禾祥西路豆仔尾路171-179号,思明区,118.088346,24.464113,"118.088346,24.464113",118.08337002288944,24.466757580961573
B0250040GD,繁荣广场,商务住宅;住宅区;住宅小区,120302,禾祥西路267号,思明区,118.092758,24.467114,"118.092758,24.467114",118.08778226317902,24.469757608791937
B0J2VSF9OQ,嘉华龙图小区,商务住宅;住宅区;住宅小区,120302,湖滨南路92号,思明区,118.092869,24.468463,"118.092869,24.468463",118.08789318988423,24.471106813516844
B0FFFPJ3YB,特运集团宿舍,商务住宅;住宅区;宿舍,120303,湖滨南路10号之2号,思明区,118.0818,24.465587,"118.081800,24.465587",118.07682500312268,24.468235668476325
B0250040P6,金成大厦,商务住宅;住宅区;住宅小区,120302,故宫路116号,思明区,118.083303,24.464309,"118.083303,24.464309",118.07832765897939,24.46695639540095
B0FFJSMU0B,白鹭洲大酒店员工之家,商务住宅;住宅区;宿舍,120303,豆仔尾路与禾祥西路交叉口南80米,思明区,118.087327,24.464302,"118.087327,24.464302",118.08235103972596,24.466947083196
B0HKO5JZEP,繁荣广场1期,商务住宅;住宅区;住宅小区,120302,禾祥西路267号,思明区,118.0929,24.467097,"118.092900,24.467097",118.08792429489527,24.46974057234023
B0FFHQLYPK,融景居厦门白鹭洲畔融景居,商务住宅;住宅区;住宅小区,120302,湖滨南路93号,思明区,118.093516,24.469861,"118.093516,24.469861",118.08854023969948,24.472504908799692
B0250040GI,龙德阁,商务住宅;住宅区;住宅小区,120302,湖滨南路94号,思明区,118.093332,24.468949,"118.093332,24.468949",118.08835626046901,24.471592792603737
B0I1FHM1VP,燃料公司宿舍,商务住宅;住宅区;住宅小区,120302,"豆仔尾路314-315,322-328号",思明区,118.087152,24.46387,"118.087152,24.463870",118.08217608116527,24.466515092967622
B0FFGBJ2Z5,美仁红楼,商务住宅;住宅区;住宅小区,120302,禾祥西路124号,思明区,118.090167,24.464866,"118.090167,24.464866",118.08519104141531,24.467509990332363
B0250040GH,龙朔阁,商务住宅;住宅区;住宅小区,120302,湖滨南路96号,思明区,118.093499,24.469003,"118.093499,24.469003",118.08852329721522,24.471646766731435
B0250043QJ,宝马花园,商务住宅;住宅区;住宅小区,120302,禾祥西路19之1-3号,思明区,118.082515,24.464051,"118.082515,24.464051",118.07753989228341,24.466698888478874
B0250040BY,乔康大厦,商务住宅;住宅区;住宅小区,120302,后江埭路170号,思明区,118.093688,24.468115,"118.093688,24.468115",118.08871240871925,24.470758577150928
B0250042FN,梅园小区,商务住宅;住宅区;住宅小区,120302,湖滨南路34号-2,思明区,118.094048,24.468649,"118.094048,24.468649",118.08907246581022,24.471292599982228
B0FFG1NRMS,种子大厦宿舍楼,商务住宅;住宅区;宿舍,120303,筼筜街道湖滨北路42-4号种子大厦宿舍楼201室,思明区,118.086057,24.477607,"118.086057,24.477607",118.0810801919656,24.480254971369703
B0250043TF,新家园,商务住宅;住宅区;住宅小区,120302,故宫东里98号,思明区,118.083539,24.463627,"118.083539,24.463627",118.0785636496631,24.466274120371665
B025003VZ0,龙升阁,商务住宅;住宅区;住宅小区,120302,湖滨南路100五龙大厦,思明区,118.093772,24.469165,"118.093772,24.469165",118.08879635490236,24.471808739640352
B0250043NM,福满家园,商务住宅;住宅区;住宅小区,120302,开元街道后江社区白鹭洲路60-72号,思明区,118.092794,24.46598,"118.092794,24.465980",118.0878183523932,24.46862340465404
B0MDY6U0ZQ,同心家园,商务住宅;住宅区;住宅小区,120302,豆仔尾路与禾祥西路交叉口南140米,思明区,118.087425,24.463875,"118.087425,24.463875",118.08244906529265,24.466519961386226
B02500QATA,龙启阁,商务住宅;住宅区;住宅小区,120302,湖滨南路102号,思明区,118.093911,24.469108,"118.093911,24.469108",118.0889353957008,24.471751703414945
B02500416G,嘉成花园,商务住宅;住宅区;住宅小区,120302,开元街道希望社区后江埭路46号,思明区,118.094018,24.467532,"118.094018,24.467532",118.08904253796764,24.470175414498545
B0FFF58QI1,物资局宿舍楼,商务住宅;住宅区;宿舍,120303,美头山路与美仁路交叉口北约140米,思明区,118.090627,24.464594,"118.090627,24.464594",118.08565110508303,24.467237784179748
B025003Z6C,双福花园,商务住宅;住宅区;住宅小区,120302,角滨路18号之1-12号,思明区,118.081631,24.464084,"118.081631,24.464084",118.07665616719655,24.466732531313443
B0FFF4JIAS,龙纪阁,商务住宅;住宅区;住宅小区,120302,湖滨南路104号,思明区,118.094163,24.469178,"118.094163,24.469178",118.08918745958881,24.471821669392753
B0I6V62JVM,鼓浪屿海上花园,商务住宅;住宅区;住宅区,120300,筼筜路与官任路交叉口西南80米,思明区,118.080921,24.476166,"118.080921,24.476166",118.07594554870995,24.478817110322716
B025003ZFX,国际广场,商务住宅;住宅区;住宅小区,120302,湖滨北路(建业路地铁站2号口步行240米),思明区,118.081674,24.477263,"118.081674,24.477263",118.07669820483198,24.479913719731595
B0FFFS3TWA,新泉庄岩味美食(思明店),商务住宅;住宅区;住宅小区|地名地址信息;普通地名;村庄级地名|餐饮服务;中餐厅;中餐厅,120302|190108|050100,禾祥西路204号(繁荣广场对面),思明区,118.093405,24.466746,"118.093405,24.466746",118.08842943654653,24.46938939999687
B025004061,润泽园,商务住宅;住宅区;住宅小区,120302,禾祥西路200号之15附近,思明区,118.093422,24.465997,"118.093422,24.465997",118.08844649456097,24.46864026713919
B02500TJIV,帝景苑(建设中),商务住宅;住宅区;住宅小区,120302,鹭江街道厦禾社区湖滨南路1-17号,思明区,118.081057,24.466955,"118.081057,24.466955",118.07608216135684,24.469604461800294
B025004D3F,嵩海公寓,商务住宅;住宅区;住宅小区,120302,故宫路106之1-8,思明区,118.083683,24.463132,"118.083683,24.463132",118.07870765099776,24.465778939715385
B0FFGJYBEA,皇家御城,商务住宅;住宅区;住宅小区,120302,白鹭洲路63-65号,思明区,118.091785,24.464451,"118.091785,24.464451",118.08680927225751,24.467094401623143
B0KU9AHB0O,粮油机械厂宿舍,商务住宅;住宅区;宿舍,120303,美仁路与豆仔尾路交叉口东北100米,思明区,118.088919,24.463681,"118.088919,24.463681",118.08394305927759,24.46632526207858
B0L2B9ND5G,故宫东里,商务住宅;住宅区;住宅小区,120302,禾祥西路与故宫路交叉口东南60米,思明区,118.083525,24.463625,"118.083525,24.463625",118.07854965319274,24.46627212918862
B0MB4CZCC1,电信邮政大院,商务住宅;住宅区;住宅小区,120302,角滨路与湖滨南路交叉口南60米,思明区,118.080825,24.465275,"118.080825,24.465275",118.0758503678658,24.467924350407554
B025002TWY,中信惠扬公寓楼,商务住宅;住宅区;住宅小区,120302,湖滨北路55号(建业路地铁站1B口步行200米),思明区,118.085791,24.478591,"118.085791,24.478591",118.08081415414762,24.481239275519645
B0LR06KXCI,厦门人民会堂广场,商务住宅;住宅区;社区中心,120304,白鹭洲路与筼筜路交叉口北160米,思明区,118.089879,24.477355,"118.089879,24.477355",118.08490212050768,24.48000119320308
B0KR5SV62Z,食品饮料厂宿舍,商务住宅;住宅区;宿舍,120303,故宫路与禾祥西路交叉口西南40米,思明区,118.082911,24.463498,"118.082911,24.463498",118.07793582031287,24.466145517685174
B0FFGMQNCG,东方旺族小区,商务住宅;住宅区;住宅小区,120302,禾祥西路206万禾商住楼,思明区,118.093474,24.466707,"118.093474,24.466707",118.08849845622021,24.469350378867453
B025003ZMS,经典大第,商务住宅;住宅区;住宅小区,120302,禾祥西路12-25附近,思明区,118.082472,24.463404,"118.082472,24.463404",118.07749695141118,24.466051805315335
B0I24HG9ZP,佳韵园二期,商务住宅;住宅区;住宅小区,120302,美仁里50-62,思明区,118.089937,24.463549,"118.089937,24.463549",118.0849611179873,24.46619284320086
B0250040G8,华富大厦,商务住宅;住宅区;住宅小区,120302,后江埭路172-174号,思明区,118.094763,24.468774,"118.094763,24.468774",118.08978766515968,24.471417502723032
B0250043H0,凤凰名都,商务住宅;住宅区;住宅小区,120302,湖滨北路33-39号(建业路地铁站1B口步行100米),思明区,118.08489,24.478616,"118.084890,24.478616",118.07991329000757,24.481264795954015
B0FFG64VXQ,光明馨苑,商务住宅;住宅区;住宅小区,120302,斗西路203之6-10,思明区,118.085237,24.462699,"118.085237,24.462699",118.08026137735672,24.46534491106216
B025003ZNN,新港广场小区,商务住宅;住宅区;住宅小区,120302,湖滨北路16-18号(建业路地铁站2号口步行400米),思明区,118.0806,24.477007,"118.080600,24.477007",118.07562460962623,24.47965849751828
B0250040G9,新嘉园,商务住宅;住宅区;住宅小区,120302,后江埭路178-180号,思明区,118.094739,24.46815,"118.094739,24.468150",118.08976370265488,24.47079339988265
B0KUHSJCBU,禾祥西食品厂宿舍,商务住宅;住宅区;宿舍,120303,禾祥西路222-232号,思明区,118.094266,24.466908,"118.094266,24.466908",118.08929065195024,24.469551263270407
B0FFF3BV7I,厦门钢窗厂宿舍,商务住宅;住宅区;宿舍,120303,鹭江街道角滨路45号5楼,思明区,118.080534,24.464377,"118.080534,24.464377",118.07555954366077,24.46702642203944
B0250043IL,佳韵园,商务住宅;住宅区;住宅小区,120302,厦禾路509号-211号,思明区,118.089941,24.463105,"118.089941,24.463105",118.08496515021737,24.465748763792842
B0MD07SA4P,华侨新村,商务住宅;住宅区;住宅小区,120302,美仁路与豆仔尾路交叉口东北100米,思明区,118.089075,24.463375,"118.089075,24.463375",118.08409908552858,24.466019144747253
B0250046N4,亿力音乐花园瑟园,商务住宅;住宅区;住宅小区,120302,厦禾路497号,思明区,118.088942,24.462684,"118.088942,24.462684",118.08396613153974,24.46532807745734
B0LA5LV4I6,艾悦澜庭,商务住宅;住宅区;住宅小区,120302,后江埭路与禾祥西路交叉口北20米,思明区,118.093725,24.467175,"118.093725,24.467175",118.0887494858676,24.469818408762926
B0FFFRCPLP,厦门市思明区邮政局宿舍,商务住宅;住宅区;宿舍,120303,湖滨南路6号之2号,思明区,118.080524,24.464611,"118.080524,24.464611",118.07554953072946,24.467260470759566
B0250043RM,御景苑,商务住宅;住宅区;住宅小区,120302,湖滨南路2-4号,思明区,118.079519,24.464887,"118.079519,24.464887",118.07454492745161,24.467537335968174
B0I0GY4VU8,湖滨E居,商务住宅;住宅区;住宅小区,120302,湖滨南路辅路与后江埭路交叉口东200米,思明区,118.094801,24.469481,"118.094801,24.469481",118.0898256260633,24.47212461721452
B0I24HHBNO,佳韵园一期,商务住宅;住宅区;住宅小区,120302,美仁路与美头山路交叉口西南60米,思明区,118.089906,24.462953,"118.089906,24.462953",118.08493015860729,24.465596749890786
B025003Z6A,禾祥苑,商务住宅;住宅区;住宅小区,120302,禾祥西路12号之1号,思明区,118.0826,24.462847,"118.082600,24.462847",118.07762495423442,24.465494617850037
B0KGMCTDX3,海湾新城,商务住宅;住宅区;住宅小区,120302,湖滨北路25号-27号(建业路地铁站1A口旁),思明区,118.083271,24.478482,"118.083271,24.478482",118.07829464751545,24.481131794473526
B025003Z29,慧景城,商务住宅;住宅区;住宅小区,120302,鹭江街道小学社区湖滨西路81-85号,思明区,118.078116,24.466227,"118.078116,24.466227",118.07314249544736,24.46887878495638
B025003ZEB,国源滨北国际,商务住宅;住宅区;住宅小区,120302,筼筜街道湖滨北路21号,思明区,118.082778,24.478554,"118.082778,24.478554",118.07780177390737,24.48120414018396
B0FFGT9UUZ,外供宿舍,商务住宅;住宅区;宿舍,120303,禾祥西路与祥滨西路交叉口西60米,思明区,118.094231,24.467199,"118.094231,24.467199",118.08925562108458,24.469842319356932
B0HDBUFRD9,生态家园,商务住宅;住宅区;住宅小区,120302,湖滨北路57号BINGO城际商务中心208室,思明区,118.086262,24.478527,"118.086262,24.478527",118.0812851027097,24.481175009861797
B0250043HY,白鹭苑,商务住宅;住宅区;住宅小区,120302,角滨路39-41号,思明区,118.080483,24.463743,"118.080483,24.463743",118.07550860917148,24.466392351531493
B0250043IP,冠成大厦,商务住宅;住宅区;住宅小区,120302,厦禾路555-571号,思明区,118.090927,24.463123,"118.090927,24.463123",118.08595124523954,24.465766428273994
B0L19SGNRC,自来水宿舍,商务住宅;住宅区;宿舍,120303,斗西路203-1,思明区,118.085597,24.462529,"118.085597,24.462529",118.08062133595023,24.465174676013042
B025003YJU,万禾花园,商务住宅;住宅区;住宅小区,120302,禾祥西路246号之1号,思明区,118.094602,24.466509,"118.094602,24.466509",118.08962677902319,24.46915213924339
B0KULCH7AZ,故宫路95号小区,商务住宅;住宅区;住宅小区,120302,故宫路与美仁路交叉口西北100米,思明区,118.083151,24.46273,"118.083151,24.462730",118.07817581158102,24.465377220114345
B0JB31KDH2,白鹭苑2期,商务住宅;住宅区;住宅小区,120302,角滨路与禾祥西路交叉口北60米,思明区,118.081248,24.463914,"118.081248,24.463914",118.07627331149335,24.466562788531295
B0FFH1CP3X,白鹭苑天赋楼,商务住宅;住宅区;住宅小区,120302,角滨路39-41号白鹭苑,思明区,118.081025,24.464025,"118.081025,24.464025",118.07605038373116,24.466673978071306
B0FFFET4CQ,白鹭苑3期,商务住宅;住宅区;住宅小区,120302,禾祥西路1-18号,思明区,118.081227,24.464,"118.081227,24.464000",118.07625231275898,24.466648819502034
B0FFGD4BNW,角滨路宿舍房,商务住宅;住宅区;宿舍,120303,禾祥西路与角滨路交叉口东40米,思明区,118.081753,24.463376,"118.081753,24.463376",118.07677817755642,24.466024317276027
B0LRJBGREL,荔桂坊,商务住宅;住宅区;住宅小区,120302,后江埭路与禾祥西路交叉口南100米,思明区,118.093931,24.466107,"118.093931,24.466107",118.0889556169463,24.46875018523576
B0250043V3,嘉美花园,商务住宅;住宅区;住宅小区,120302,湖滨西路72号,思明区,118.079355,24.463979,"118.079355,24.463979",118.07438106542209,24.466629315179606
B025003ZEP,联邦广场,商务住宅;住宅区;住宅小区,120302,禾祥西路6号之1-1号,思明区,118.080773,24.462684,"118.080773,24.462684",118.07579857375464,24.465332937622644
B0FFH1EL4C,福泽楼,商务住宅;住宅区;住宅小区,120302,角滨路29号白鹭苑,思明区,118.080652,24.463627,"118.080652,24.463627",118.07567755199355,24.46627619794984
B0FFG7WQ07,禄鸿楼,商务住宅;住宅区;住宅小区,120302,角滨路27号,思明区,118.080516,24.463618,"118.080516,24.463618",118.07554160525612,24.46626730350755
B0FFH1K1HZ,福泰楼,商务住宅;住宅区;住宅小区,120302,西堤南里国贸信隆城,思明区,118.077508,24.466752,"118.077508,24.466752",118.07253477550977,24.469404430161187
B0250041T9,君临宝邸,商务住宅;住宅区;住宅小区,120302,开元街道后江社区厦禾路681-683号,思明区,118.093781,24.463924,"118.093781,24.463924",118.08880573426684,24.466566834107773
B0FFGA0Y7G,寿星楼,商务住宅;住宅区;住宅小区,120302,禾祥西路白鹭园1-8号,思明区,118.080352,24.463544,"118.080352,24.463544",118.07537767523343,24.466193420833935
B0FFH1LVNQ,瀛州楼,商务住宅;住宅区;住宅区,120300,角滨路21号,思明区,118.079806,24.463684,"118.079806,24.463684",118.0748318899395,24.46633388789686
B025003ZEI,禾祥首府,商务住宅;住宅区;住宅小区,120302,禾祥西路2号,思明区,118.079586,24.462875,"118.079586,24.462875",118.0746120428119,24.46552492792649
B025003QVE,振兴新村,商务住宅;住宅区;住宅小区,120302,湖滨北路118号(湖滨中路地铁站2号口步行150米),思明区,118.09384,24.478718,"118.093840,24.478718",118.08886368534631,24.481363305638897
B0FFGCGFWX,东辉小区,商务住宅;住宅区;住宅小区,120302,海山路,湖里区,118.084479,24.488188,"118.084479,24.488188",118.07950167715128,24.49083853827819
B0M66M9MY3,东隅小区,商务住宅;住宅区;住宅小区,120302,金鼎巷与金鼎路交叉口东南140米,湖里区,118.083925,24.486752,"118.083925,24.486752",118.07894789625254,24.48940266574719
B0J66NUEPK,东荣社区,商务住宅;住宅区;住宅小区,120302,金鼎路与金鼎巷交叉口东100米,湖里区,118.083932,24.487691,"118.083932,24.487691",118.07895482710418,24.49034180442593
B02500SS91,海山居,商务住宅;住宅区;住宅小区,120302,海山路74-2号,湖里区,118.0837,24.486556,"118.083700,24.486556",118.07872296168135,24.489206780250953
B0FFJ93AXK,海关宿舍小区,商务住宅;住宅区;住宅小区,120302,金鼎路与金鼎巷交叉口东北100米,湖里区,118.083726,24.488198,"118.083726,24.488198",118.07874883742825,24.490849013489743
B025003Z0M,东荣公寓,商务住宅;住宅区;住宅小区,120302,金鼎巷10号,湖里区,118.08341,24.485908,"118.083410,24.485908",118.07843307814873,24.488558870452177
B0250042EJ,建港指挥部宿舍,商务住宅;住宅区;宿舍,120303,金鼎路19-21号,湖里区,118.083198,24.487991,"118.083198,24.487991",118.07822098188021,24.49064232953532
B025003Z0L,上苑山庄,商务住宅;住宅区;住宅小区,120302,金鼎巷12号,湖里区,118.082992,24.486426,"118.082992,24.486426",118.07801514879726,24.489077229913395
B0KUG5WKUT,东荣小区,商务住宅;住宅区;住宅小区,120302,海山路与东兴路交叉口西北40米,湖里区,118.083936,24.489069,"118.083936,24.489069",118.07895872701937,24.49172001038612
B0FFG9SZXO,国检小区,商务住宅;住宅区;住宅小区,120302,金鼎路39-43号,湖里区,118.083287,24.4889,"118.083287,24.488900",118.07830989364716,24.491551407575926
B0L2OLWN5W,海山路121号,商务住宅;住宅区;住宅小区,120302,海山路与东兴路交叉口西60米,湖里区,118.083687,24.488902,"118.083687,24.488902",118.07870979584986,24.491553145128357
B0FFF3BTFE,东兴小区,商务住宅;住宅区;住宅小区,120302,仙岳路与和宁路交叉口南220米,湖里区,118.087544,24.490244,"118.087544,24.490244",118.0825661620832,24.49289318381463
B0FFGE7791,厦门气象局宿舍,商务住宅;住宅区;宿舍,120303,海山路47号,湖里区,118.083074,24.484775,"118.083074,24.484775",118.0780972457774,24.48742592009929
B0250041MH,东渡小区,商务住宅;住宅区;住宅小区,120302,双狮北路与海山路交叉口南80米,湖里区,118.084009,24.48988,"118.084009,24.489880",118.07903165256072,24.492531085886306
B02500402P,海俱宿舍区,商务住宅;住宅区;宿舍,120303,东渡路124号,湖里区,118.083506,24.489443,"118.083506,24.489443",118.07852880011687,24.492094344570877
B02500QE09,陶然北岸,商务住宅;住宅区;住宅小区,120302,仙岳路152号2602-小区,思明区,118.090387,24.488394,"118.090387,24.488394",118.08540936804022,24.491041741057625
B025003W6I,都市港湾,商务住宅;住宅区;住宅小区,120302,金鼎里1号,湖里区,118.081683,24.486012,"118.081683,24.486012",118.07670657224949,24.488664094151744
B0250041MK,中闽药检宿舍楼,商务住宅;住宅区;宿舍,120303,海山路21-27号,湖里区,118.082477,24.484293,"118.082477,24.484293",118.0775004471278,24.486944256692116
B0250041B7,东渡华城,商务住宅;住宅区;住宅小区,120302,东渡路106号,湖里区,118.081516,24.487887,"118.081516,24.487887",118.07653949358469,24.490539504386724
B0250041XK,厦门卫生检疫所职工宿舍,商务住宅;住宅区;宿舍,120303,东渡路116之1-2,湖里区,118.081981,24.488611,"118.081981,24.488611",118.07700428815036,24.491263272108185
B0250041ME,源昌大厦,商务住宅;住宅区;住宅小区,120302,东渡路102号,湖里区,118.081051,24.486497,"118.081051,24.486497",118.07607475758373,24.489149644124776
B0FFGEBXDP,海山路水务宿舍,商务住宅;住宅区;宿舍,120303,海山路与东兴路交叉口北约20米,湖里区,118.084908,24.49139,"118.084908,24.491390",118.07993036740253,24.494040759969497
B0JA17MGL5,边检小区,商务住宅;住宅区;住宅小区,120302,海山路15-19号,湖里区,118.081574,24.48475,"118.081574,24.484750",118.07659769965855,24.487401980259918
B025003Z7B,东渡三航小区,商务住宅;住宅区;宿舍,120303,东渡海山路11号,湖里区,118.081605,24.484129,"118.081605,24.484129",118.07662873388703,24.4867808609027
B0KULS7BSF,东渡路128号小区,商务住宅;住宅区;住宅小区,120302,海山路与双狮北路交叉口北60米,湖里区,118.084015,24.491214,"118.084015,24.491214",118.07903755521414,24.49386528112962
B0FFHHC03Y,双狮山小区,商务住宅;住宅区;住宅小区,120302,东渡路103-3正西方向80米,湖里区,118.081156,24.489514,"118.081156,24.489514",118.07617950248205,24.492167021474295
B0FFHQRKOC,东苑邨,商务住宅;住宅区;住宅小区,120302,东渡路90号,湖里区,118.080535,24.485274,"118.080535,24.485274",118.07555903997756,24.48792685774367
B0FFH1JJ7T,万峰华庭,商务住宅;住宅区;住宅小区,120302,湖滨中路519号,思明区,118.091383,24.484077,"118.091383,24.484077",118.08640579811338,24.48672375692897
B025003ZUW,港务宿舍楼,商务住宅;住宅区;宿舍,120303,东渡路101号,湖里区,118.080417,24.487952,"118.080417,24.487952",118.07544089353249,24.490605361087283
B0FFGSYLPS,东村巷渔港宿舍,商务住宅;住宅区;宿舍,120303,东渡路东村巷,湖里区,118.080828,24.48439,"118.080828,24.484390",118.07585199161818,24.48704249140605
B0MG4OYOQ2,礼18瑞福居,商务住宅;住宅区;住宅小区,120302,仙岳路与海大立交交叉口南60米,湖里区,118.086078,24.491929,"118.086078,24.491929",118.08110015859513,24.494579177261095
B0KUFZ8DBJ,工商局宿舍,商务住宅;住宅区;住宅区,120300,东渡路78号,湖里区,118.080392,24.484792,"118.080392,24.484792",118.07541613084707,24.487444896672102
B025003ZFH,国贸春天,商务住宅;住宅区;住宅区,120300,湖滨中路531-567号,思明区,118.092654,24.486052,"118.092654,24.486052",118.08767687862257,24.488698715872278
B0LGMHAZCG,万福苑,商务住宅;住宅区;住宅小区,120302,仙岳路与和宁路交叉口东南160米,湖里区,118.089289,24.491297,"118.089289,24.491297",118.08431108386753,24.493945582775314
B025003ZFJ,山景叠院,商务住宅;住宅区;住宅小区,120302,湖滨中路569-583号,思明区,118.09272,24.487448,"118.092720,24.487448",118.08774279184081,24.490094913297085
B0250041XJ,厦门海事局宿舍楼,商务住宅;住宅区;宿舍,120303,双狮山路8-10号,湖里区,118.080433,24.488811,"118.080433,24.488811",118.07545682539043,24.4914644783459
B0MDNUEJU3,双狮山13号,商务住宅;住宅区;住宅小区,120302,东渡路103-之1号,湖里区,118.080486,24.488577,"118.080486,24.488577",118.07550982139847,24.491230400960447
B0FFHULMEJ,爆破公司宿舍,商务住宅;住宅区;宿舍,120303,仙岳路,思明区,118.092254,24.488622,"118.092254,24.488622",118.08727661501491,24.491269208490596
B0LUM48SIR,东湖怡友,商务住宅;住宅区;住宅小区,120302,东渡路与金鼎路交叉口西北120米,湖里区,118.080375,24.488475,"118.080375,24.488475",118.07539887253144,24.491128473751214
B0L31UW5KS,双狮山路34号,商务住宅;住宅区;住宅小区,120302,湖里街道双狮山路34号,湖里区,118.080757,24.489841,"118.080757,24.489841",118.07578062604729,24.492494378173348
B025003ZFC,山水芳邻,商务住宅;住宅区;住宅小区,120302,湖滨中路503-517号,思明区,118.092845,24.484296,"118.092845,24.484296",118.08786804530848,24.4869423989376
B0250042CZ,福隆东方丽景,商务住宅;住宅区;住宅小区,120302,湖滨中路山水芳邻对面,思明区,118.09316,24.485154,"118.093160,24.485154",118.08818305385579,24.487800459858846
B0FFJT0RNR,中国海监第六支队职工住宅,商务住宅;住宅区;住宅小区,120302,仙岳路164号,思明区,118.092689,24.488788,"118.092689,24.488788",118.08771168889933,24.49143512387801
B0KRZYDNVK,厦门港船务公司职工宿舍,商务住宅;住宅区;宿舍,120303,北通道与双狮北一路交叉口东南80米,湖里区,118.079981,24.489793,"118.079981,24.489793",118.07500493799547,24.492446989802158
B0LBLUNGV3,南逸轩,商务住宅;住宅区;住宅小区,120302,海大立交与海虹路交叉口东北100米,湖里区,118.086625,24.493225,"118.086625,24.493225",118.08164700893586,24.49587507952744
B0250040FR,福隆花园,商务住宅;住宅区;住宅小区,120302,仙岳路95号,湖里区,118.091487,24.491943,"118.091487,24.491943",118.08650924706157,24.494590918865622
B0FFMC8BV5,华丽城,商务住宅;住宅区;住宅小区,120302,东渡路辅路与双狮南路交叉口西南240米,湖里区,118.079398,24.484229,"118.079398,24.484229",118.07442258962581,24.486882623226606
B02500SG7G,凤凰山庄,商务住宅;住宅区;住宅小区,120302,筼筜街道湖滨北路(建业路地铁站1B口步行360米),思明区,118.085773,24.479709,"118.085773,24.479709",118.0807960760486,24.48235746465114
B0G0A5ULO7,凤凰山庄17号别墅,商务住宅;住宅区;别墅,120301,凤凰山庄4号,思明区,118.08682,24.480077,"118.086820,24.480077",118.0818429389038,24.482724968469
B0KDA7ISPK,湖里区新港社区,商务住宅;住宅区;住宅小区,120302,双狮南路28号(邮轮中心地铁站1号口步行190米),湖里区,118.078419,24.486245,"118.078419,24.486245",118.07344390386574,24.488899779392955
B0FFH92NXX,闽交小区,商务住宅;住宅区;住宅小区,120302,东渡路164-178号,湖里区,118.085195,24.494161,"118.085195,24.494161",118.08021711994475,24.496811999176842
B025002UI6,鹭槟大厦,商务住宅;住宅区;住宅小区,120302,湖里街道新港社区东渡路69号(邮轮中心地铁站6号口步行280米),湖里区,118.078947,24.483457,"118.078947,24.483457",118.07397185093227,24.486110886921477
B025003ZUM,双狮南里,商务住宅;住宅区;住宅小区,120302,双狮南里6-8(邮轮中心地铁站6号口步行160米),湖里区,118.078431,24.484531,"118.078431,24.484531",118.07345602128565,24.48718550444307
B0LG0R5OIK,牛头山小区,商务住宅;住宅区;住宅小区,120302,东渡牛头山路与双狮北一路交叉口东南200米,湖里区,118.08126,24.492381,"118.081260,24.492381",118.07628325904781,24.495034369136015
B0250043GX,观音山小区,商务住宅;住宅区;住宅小区,120302,石亭路142-144号,思明区,118.092732,24.482566,"118.092732,24.482566",118.0877551457927,24.485212155761648
B0IRTSCXM9,小城故事禹洲新城2期,商务住宅;住宅区;住宅小区,120302,和宁里与和宁路交叉口西南80米,湖里区,118.087019,24.494195,"118.087019,24.494195",118.0820409076348,24.49684502180593
B0MAGCZG9R,凤凰山庄5号别墅,商务住宅;住宅区;住宅区,120300,狐尾山路与凤凰山庄交叉口西南100米,思明区,118.087175,24.479875,"118.087175,24.479875",118.08219792817562,24.48252275934858
B0FFG64YM7,厦门茶叶进出口公司宿舍楼,商务住宅;住宅区;住宅小区,120302,石亭路102-104号,思明区,118.093579,24.483575,"118.093579,24.483575",118.0886022685286,24.486221125972314
B0250040PJ,小城故事禹洲新城,商务住宅;住宅区;住宅小区,120302,和宁里与和宁路交叉口西60米,湖里区,118.087102,24.494435,"118.087102,24.494435",118.08212388470118,24.497085015609812
B0250041MJ,明月园,商务住宅;住宅区;住宅小区,120302,海山路2-12号,湖里区,118.079574,24.482245,"118.079574,24.482245",118.07459865479687,24.48489816577663
B0MA5OQPSS,邮政宿舍楼,商务住宅;住宅区;宿舍,120303,东渡路辅路与东宝路交叉口西60米,湖里区,118.079025,24.483925,"118.079025,24.483925",118.07404978095917,24.48657889281671
B0250041XE,石亭路21-25号小区,商务住宅;住宅区;住宅小区,120302,石亭路21-25号(湖滨中路地铁站1号口步行400米),思明区,118.091371,24.480839,"118.091371,24.480839",118.08639402945732,24.483485252011356
B02500SUJS,振华大厦,商务住宅;住宅区;住宅区,120300,东渡路59号(邮轮中心地铁站6号口步行290米),湖里区,118.078636,24.4828,"118.078636,24.482800",118.0736610458944,24.48545405421357
B025003ZME,宝鹭苑,商务住宅;住宅区;住宅小区,120302,东渡路65之5-8(邮轮中心地铁站6号口步行140米),湖里区,118.07826,24.483653,"118.078260,24.483653",118.07328516939981,24.486307519841212
B025003W7Z,世纪海湾,商务住宅;住宅区;住宅小区,120302,湖滨北路25-27号(建业路地铁站1A口步行70米),思明区,118.083298,24.479243,"118.083298,24.479243",118.07832158589478,24.481892898664732
B0IRTSFBDF,小城故事禹洲新城1期,商务住宅;住宅区;住宅小区,120302,和宁里47-48号,湖里区,118.087183,24.494758,"118.087183,24.494758",118.08220485625375,24.497408022696323
B025003XDN,边检宿舍(和通路),商务住宅;住宅区;宿舍,120303,和通里41-49号,湖里区,118.091197,24.493177,"118.091197,24.493177",118.08621911698378,24.495825188361827
B0FFF6WFMM,中信广场,商务住宅;住宅区;住宅小区,120302,湖滨北路(建业路地铁站1B口步行60米),思明区,118.084063,24.478843,"118.084063,24.478843",118.07908643523095,24.48149233869975
B025004DGX,富仕公寓,商务住宅;住宅区;住宅小区,120302,仙岳路193-195号附近,思明区,118.094248,24.490439,"118.094248,24.490439",118.08927095336453,24.49308604806679
B0JAGKE5NU,央央书画苑·成长中心,商务住宅;住宅区;住宅区,120300,石亭路与湖滨北路交叉口北100米,思明区,118.091827,24.480732,"118.091827,24.480732",118.08685010770628,24.48337810224418
B0KU6S21Q4,石亭小区,商务住宅;住宅区;住宅小区,120302,鱼褔四里189一103,思明区,118.092859,24.480679,"118.092859,24.480679",118.08788230867918,24.483324827700354
B0FFGFG6O9,世纪海湾2期,商务住宅;住宅区;住宅区,120300,湖滨北路与建业路交叉口北120米,思明区,118.083365,24.47902,"118.083365,24.479020",118.07838858507355,24.481669818441393
B02500S6YP,国际邮轮城二期,商务住宅;住宅区;住宅小区,120302,东港北路1-11号、21-27号,湖里区,118.077665,24.482724,"118.077665,24.482724",118.07269054293086,24.485378913363377
B0FFG842KJ,新丰家园,商务住宅;住宅区;住宅小区,120302,和通里57-59号,湖里区,118.09147,24.494206,"118.091470,24.494206",118.08649208157793,24.49685425599435
B0FFGPOFX6,厦门六中学生宿舍,商务住宅;住宅区;宿舍,120303,厦门第六中学,湖里区,118.090544,24.494488,"118.090544,24.494488",118.08556594482951,24.49713659129187
B0250040FT,港务小区,商务住宅;住宅区;住宅小区,120302,和通里60-96号,湖里区,118.092179,24.494658,"118.092179,24.494658",118.0872011665341,24.49730612242092
B0LGURG0C3,招商蛇口,商务住宅;住宅区;住宅小区,120302,东渡牛头山路与纵二路交叉口东南20米,湖里区,118.078699,24.493435,"118.078699,24.493435",118.07372325024251,24.496090611100488
B0MAZ7EHEJ,隅见圜庭,商务住宅;住宅区;住宅小区,120302,湖滨北路与湖滨中路交叉口西南120米,思明区,118.094275,24.479775,"118.094275,24.479775",118.0892987286885,24.48242039606034
B025004C4E,和旭里小区,商务住宅;住宅区;住宅小区,120302,和旭里4-6号,湖里区,118.088741,24.499101,"118.088741,24.499101",118.08376250651229,24.501750935127042
B02500QA98,禹洲棕榈城,商务住宅;住宅区;住宅小区,120302,和宁里123-129号,湖里区,118.086858,24.498235,"118.086858,24.498235",118.08187962863273,24.50088568301222
B0L1K5UF5V,海月居,商务住宅;住宅区;住宅小区,120302,和旭路与和宁路交叉口西60米,湖里区,118.087075,24.498825,"118.087075,24.498825",118.0820965703596,24.50147565802148
B0FFG0JKYN,濠头村新庄园,商务住宅;住宅区;住宅小区,120302,和宁里105-108号,湖里区,118.087239,24.497198,"118.087239,24.497198",118.08226067714416,24.499848346514895
B0250043J8,优山美地,商务住宅;住宅区;住宅小区,120302,和旭里31-33号,湖里区,118.090766,24.498662,"118.090766,24.498662",118.08578766831944,24.50131111556145
B0LBC5DDNE,建发象屿观云,商务住宅;住宅区;住宅小区,120302,厦门六中东渡校区北侧,湖里区,118.088799,24.497502,"118.088799,24.497502",118.08382062260166,24.50015168432922
B0250043PG,临海苑,商务住宅;住宅区;住宅小区,120302,海天路3之1-2,湖里区,118.093037,24.504854,"118.093037,24.504854",118.08805860718638,24.50750334134335
B0250043PJ,滨海苑,商务住宅;住宅区;住宅小区,120302,竹坑路2-6号,湖里区,118.093123,24.505431,"118.093123,24.505431",118.08814458514183,24.50808039990435
B0L1YMD97B,滨海苑D座,商务住宅;住宅区;住宅小区,120302,竹坑路2-6号滨海苑,湖里区,118.092661,24.505432,"118.092661,24.505432",118.08768248442843,24.508081507842274
B0KDDH2C7G,厦门市驻厦小区,商务住宅;住宅区;住宅小区,120302,东渡路198-210,湖里区,118.086298,24.496426,"118.086298,24.496426",118.08131981034902,24.49907671470253
B0250043V6,特房华苑,商务住宅;住宅区;住宅小区,120302,海天路4之7-12,湖里区,118.094008,24.503756,"118.094008,24.503756",118.08902992760882,24.506404992963102
B0KURC4ASP,海天路5号小区,商务住宅;住宅区;住宅小区,120302,凤湖街与海天路交叉口西北60米,湖里区,118.093446,24.505014,"118.093446,24.505014",118.08846769171939,24.507663273928785
B0MAB7STFK,湖里社区,商务住宅;住宅区;住宅小区,120302,象兴五路与象屿路交叉口南280米,湖里区,118.089825,24.508775,"118.089825,24.508775",118.08484585429565,24.5114258241389
B0250043HI,昆仑公寓,商务住宅;住宅区;住宅小区,120302,和顺里7-9号,湖里区,118.090612,24.497362,"118.090612,24.497362",118.08563374497949,24.50001098216422
B0MBBCWTU8,建发溢佰宿舍,商务住宅;住宅区;宿舍,120303,东渡路208号,湖里区,118.086303,24.496434,"118.086303,24.496434",118.08132480924529,24.49908471320137
B0250043ST,榕海花园,商务住宅;住宅区;住宅小区,120302,东渡路183-185号,湖里区,118.084351,24.495922,"118.084351,24.495922",118.07937314572598,24.498573759630855
B0LA37F1ZZ,中海之夏,商务住宅;住宅区;住宅小区,120302,竹坑路与长岸路辅路交叉口东南60米,湖里区,118.093153,24.505746,"118.093153,24.505746",118.08817456934392,24.508395435628227
B0250043TC,沧海苑,商务住宅;住宅区;住宅小区,120302,和宁路49号,湖里区,118.087118,24.495656,"118.087118,24.495656",118.08213979572626,24.498306184561
B0250041W1,和顺里,商务住宅;住宅区;住宅小区,120302,和顺里15,湖里区,118.090534,24.496877,"118.090534,24.496877",118.08555577175805,24.49952593920513
B025003RDP,金海花园,商务住宅;住宅区;住宅小区,120302,和顺里2-34号,湖里区,118.08999,24.496326,"118.089990,24.496326",118.08501176288847,24.498975051315107
B0G1AHY8RR,濠头社区,商务住宅;住宅区;住宅小区,120302,和宁二路7号M层-4层,湖里区,118.086384,24.495711,"118.086384,24.495711",118.0814058529338,24.498361566448775
B0G1H7KN5I,湖里街道濠头社区活动中心,商务住宅;住宅区;社区中心,120304,湖里区和宁二路7号,湖里区,118.086316,24.495745,"118.086316,24.495745",118.08133785749523,24.498395607226144
B025002XK8,滨海森林,商务住宅;住宅区;住宅小区,120302,和顺里36-158号,湖里区,118.091017,24.496462,"118.091017,24.496462",118.08603885690664,24.499110721246556
B0250043P8,恒丰花园,商务住宅;住宅区;住宅小区,120302,长岸路86-144号,湖里区,118.093679,24.507864,"118.093679,24.507864",118.08870054476316,24.51051360774808
B0G1H7MR17,村里社区,商务住宅;住宅区;住宅小区,120302,竹坑路18号3楼,湖里区,118.094797,24.505221,"118.094797,24.505221",118.08981905190282,24.507870060740554
B0250041CO,半山林海,商务住宅;住宅区;住宅小区,120302,和通里168号,湖里区,118.09212,24.49611,"118.092120,24.496110",118.08714205125506,24.498758347963932
B025003Y24,兴隆阁,商务住宅;住宅区;住宅小区,120302,兴隆路2号,湖里区,118.094324,24.508185,"118.094324,24.508185",118.0893456969649,24.51083453161875
B0MGN1R4I5,戏台44号公寓,商务住宅;住宅区;住宅小区,120302,竹坑路与凤湖街交叉口东北120米,湖里区,118.094575,24.506525,"118.094575,24.506525",118.08959689024454,24.50917426992394
B0MG9MOWB0,湖里街15号,商务住宅;住宅区;住宅小区,120302,湖里街与凤湖街交叉口西120米,湖里区,118.094476,24.507107,"118.094476,24.507107",118.08949781888724,24.509756363447234
B0LDJ1U2OX,半山林海1期,商务住宅;住宅区;住宅小区,120302,和通里与和通路交叉口东60米,湖里区,118.092129,24.49634,"118.092129,24.496340",118.08715103631492,24.498988378602398
B0FFGA9BW8,桥东小区,商务住宅;住宅区;住宅小区,120302,双狮西路与支一路交叉口东北300米,湖里区,118.080977,24.495357,"118.080977,24.495357",118.07600014688923,24.4980110197115
B0L2GKRS7Q,边检公寓,商务住宅;住宅区;住宅小区,120302,牛头山北路与东渡路辅路交叉口西北280米,湖里区,118.081725,24.495125,"118.081725,24.495125",118.0767479023143,24.49777842273188
B0250041I1,和通新村,商务住宅;住宅区;住宅小区,120302,和通里与和通路交叉口东南220米,湖里区,118.093486,24.495479,"118.093486,24.495479",118.08850838831584,24.498126932858472
B0H0UMKOOL,宏达楼,商务住宅;住宅区;住宅小区,120302,华昌西路与兴隆路交叉口北约120米,湖里区,118.094096,24.509837,"118.094096,24.509837",118.08911751365547,24.51248678825467
B0M6XDOSAJ,上合雍鼎,商务住宅;住宅区;住宅小区,120302,屿北一路与象兴四路交叉口东南60米,湖里区,118.093225,24.517775,"118.093225,24.517775",118.08824571930296,24.520425966593226
B0M6F10L3R,博渡家园,商务住宅;住宅区;住宅小区,120302,象兴三路与屿北三路交叉口西南40米,湖里区,118.094225,24.520325,"118.094225,24.520325",118.08924579390839,24.52297608028513
B0M6X5Q9YQ,帝城国际,商务住宅;住宅区;住宅小区,120302,象兴一路与象兴三路交叉口东60米,湖里区,118.094425,24.518075,"118.094425,24.518075",118.08944601358736,24.520725773321026
B0FFF9KBPU,厦门大学思明校区勤业教工住宅区,商务住宅;住宅区;宿舍,120303,思明南路422号厦门大学,思明区,118.10171,24.43862,"118.10171,24.43862",118.09674013548859,24.441257952321138
B0FFF6VG10,厦门大学思明校区凌云学生公寓,商务住宅;住宅区;宿舍,120303,思明南路422号厦门大学内,思明区,118.101812,24.439797,"118.101812,24.439797",118.09684211647775,24.442435202088507
B025003QTP,厦门大学思明校区东边社,商务住宅;住宅区;宿舍,120303,思明南路422号厦门大学,思明区,118.101476,24.435619,"118.101476,24.435619",118.09650620254524,24.43825631531684
B0FFF2SPON,厦门大学敬贤教工宿舍6号楼,商务住宅;住宅区;宿舍,120303,滨海街道思明南路422号厦门大学敬贤教工宿舍6号楼3楼,思明区,118.10014,24.438257,"118.10014,24.438257",118.09516921436527,24.440894690629747
B0FFF9E03R,厦门大学思明校区石井学生公寓,商务住宅;住宅区;宿舍,120303,思明南路422号厦门大学,思明区,118.103661,24.434487,"118.103661,24.434487",118.09869277035438,24.43712450404583
B0FFF926IN,厦门大学思明校区凌峰教工住宅区,商务住宅;住宅区;宿舍,120303,思明南路422号厦门大学,思明区,118.10058,24.440447,"118.10058,24.440447",118.09560931075794,24.443085167627878
B0FFF9LWGE,厦门大学思明校区丰庭学生公寓,商务住宅;住宅区;宿舍,120303,思明南路422号厦门大学内,思明区,118.098882,24.438971,"118.098882,24.438971",118.09391048819803,24.441608758375697
B0FFF2SRRV,厦门大学思明校区海滨博士后公寓,商务住宅;住宅区;宿舍,120303,海滨路15-之1号附近,思明区,118.105615,24.433889,"118.105615,24.433889",118.1006483300353,24.436526928389128
B0FFF9E7VK,厦门大学思明校区国光教工住宅区,商务住宅;住宅区;宿舍,120303,国光路一13-16,思明区,118.098711,24.439973,"118.098711,24.439973",118.09373933027193,24.4426109523603
B0FFFA7KG2,厦门大学思明校区海滨教工住宅区,商务住宅;住宅区;住宅小区,120302,滨海街道海滨路2号,思明区,118.10691,24.432751,"118.10691,24.432751",118.10194451322488,24.43538914628892
B025002HIC,博海豪园,商务住宅;住宅区;住宅小区,120302,大学路583-587号,思明区,118.106503,24.43173,"118.106503,24.431730",118.10153723214522,24.434367787692047
B0FFKUFKWR,大学路595小区,商务住宅;住宅区;住宅小区,120302,海滨路与凌云路交叉口东南40米,思明区,118.10718,24.432001,"118.107180,24.432001",118.1022148063077,24.434639095155347
B0K607199Y,海洋东苑,商务住宅;住宅区;住宅小区,120302,大学路184号1-2号,思明区,118.098624,24.432418,"118.098624,24.432418",118.0936528298856,24.435054428173817
B025003J68,厦门大学思明校区海滨东区,商务住宅;住宅区;住宅小区,120302,思明南路422号厦门大学艺术学院旁,思明区,118.11008,24.432256,"118.110080,24.432256",118.10511756357016,24.434895439786583
B0FFF0KIIL,厦门大学思明校区海滨宿舍,商务住宅;住宅区;宿舍,120303,厦门大学路583号博海豪园802室,思明区,118.10976,24.430433,"118.10976,24.430433",118.10479736979848,24.433071904663446
B025004RLG,名仕御园,商务住宅;住宅区;住宅小区,120302,环岛南路,思明区,118.111162,24.430745,"118.111162,24.430745",118.10620080296684,24.43338469846035
B0LB1A2SR5,经管小区,商务住宅;住宅区;住宅小区,120302,坑内路与育青路交叉口东南240米,思明区,118.102637,24.456907,"118.102637,24.456907",118.0976664349615,24.45954859710374
B0FFGT86NC,公安局宿舍,商务住宅;住宅区;宿舍,120303,坑内路与育青路交叉口南140米,思明区,118.101275,24.456907,"118.101275,24.456907",118.09630354718277,24.459548372315535
B0J2MSVT0F,阳台雅苑,商务住宅;住宅区;住宅小区,120302,阳台山路24-22号,思明区,118.102454,24.457752,"118.102454,24.457752",118.09748324988591,24.460393715474712
B0MDNOFPGC,公安小区,商务住宅;住宅区;住宅小区,120302,坑内路与育青路交叉口南140米,思明区,118.101175,24.456875,"118.101175,24.456875",118.09620348773004,24.459516353143908
B0FFGB0NL0,民警宿舍,商务住宅;住宅区;宿舍,120303,育青路与坑内路交叉口东南140米,思明区,118.101225,24.456975,"118.101225,24.456975",118.09625351135867,24.45961637793811
B0FFFEIB2G,阳台山公安宿舍,商务住宅;住宅区;宿舍,120303,阳台山路21号之4-5、23号之4-5,思明区,118.102806,24.458261,"118.102806,24.458261",118.0978354538321,24.460902875713575
B0FFHIHNIO,怡祥佳苑,商务住宅;住宅区;住宅小区,120302,阳台山路16-18号,思明区,118.10244,24.458016,"118.102440,24.458016",118.09746922145978,24.460657760594234
B0FFGFG8PA,机关宿舍小区,商务住宅;住宅区;住宅小区,120302,坑内路与育青路交叉口东南约80米,思明区,118.10134,24.457844,"118.101340,24.457844",118.09636852021102,24.460485551076836
B0MGJ5BPM3,坑内路20号之4号,商务住宅;住宅区;住宅小区,120302,坑内路20-之4号,思明区,118.10143,24.45773,"118.101430,24.457730",118.09645858466213,24.46037154309935
B0250043L1,电业小区东区,商务住宅;住宅区;住宅小区,120302,育青路27号,思明区,118.100031,24.457032,"118.100031,24.457032",118.0950588035275,24.45967325966747
B0FFHIHN68,阳台佳苑,商务住宅;住宅区;住宅小区,120302,阳台山路6-14号(将军祠地铁站3号口步行500米),思明区,118.102408,24.458493,"118.102408,24.458493",118.09743716560845,24.46113484073072
B0J15C0FRO,电业小区(育青路)B号楼,商务住宅;住宅区;住宅小区,120302,育青路1号电业小区,思明区,118.099489,24.455971,"118.099489,24.455971",118.09451658260704,24.458612028486012
B0FFGCZHY6,中行宿舍,商务住宅;住宅区;宿舍,120303,阳台山2号之,思明区,118.102175,24.458575,"118.102175,24.458575",118.09720400417545,24.461216813686168
B02500Q8QV,筼筜书院,商务住宅;住宅区;住宅小区,120302,开元街道阳台山社区阳台山一里1-5(将军祠地铁站4号口步行470米),思明区,118.102136,24.459119,"118.102136,24.459119",118.09716493927917,24.46176090475455
B0G2AM5MYX,阳台山社区,商务住宅;住宅区;住宅小区,120302,阳台山一里32号(将军祠地铁站3号口步行490米),思明区,118.101395,24.458572,"118.101395,24.458572",118.0964235022046,24.461213690141783
B0KRZ5FNX4,圆珠笔厂职工宿舍,商务住宅;住宅区;宿舍,120303,阳台山路与育青路交叉口东南80米,思明区,118.103017,24.459148,"118.103017,24.459148",118.09804653702065,24.4617900788366
B0MD4XL1GF,松声苑,商务住宅;住宅区;住宅区,120300,万寿路与万寿北路交叉口东南180米,思明区,118.104525,24.458951,"118.104525,24.458951",118.0995556615933,24.46159340936029
B0J03MY6V0,万寿佳苑,商务住宅;住宅区;住宅区,120300,万寿路56-66号,思明区,118.105406,24.459134,"118.105406,24.459134",118.10043734570202,24.46177670059309
B02500QINL,万隆公寓,商务住宅;住宅区;住宅小区,120302,万寿路148-162号,思明区,118.107064,24.458523,"118.107064,24.458523",118.10209679798729,24.461166165228487
B0FFHIHNQ2,欣景佳苑,商务住宅;住宅区;住宅小区,120302,阳台山路9号(将军祠地铁站4号口步行380米),思明区,118.102996,24.45937,"118.102996,24.459370",118.09802550634218,24.462012114263974
B025004DZ4,电业小区西区,商务住宅;住宅区;住宅小区,120302,育青路7号,思明区,118.098643,24.456535,"118.098643,24.456535",118.09367010604709,24.459176097674117
B0KBPHWY2G,松声岚庭小区,商务住宅;住宅区;住宅小区,120302,开元街道万寿路104号,思明区,118.106591,24.458766,"118.106591,24.458766",118.10162336600148,24.46140903337356
B0JKNZIGCN,华东苑,商务住宅;住宅区;住宅小区,120302,万寿路68号,思明区,118.105665,24.459074,"118.105665,24.459074",118.10069656176658,24.461716771984946
B025003LSZ,万寿假日公寓,商务住宅;住宅区;住宅小区,120302,万寿路20-50号,思明区,118.10436,24.459687,"118.104360,24.459687",118.09939048206631,24.46232949665468
B0FFFP4VDZ,电业小区北区,商务住宅;住宅区;住宅小区,120302,育青路与坑内路交叉口西南160米,思明区,118.099176,24.45743,"118.099176,24.457430",118.09420331242607,24.46007127781071
B02500T4NZ,电业小区(育青路),商务住宅;住宅区;住宅小区,120302,育青路1号,思明区,118.098876,24.457284,"118.098876,24.457284",118.0939031688784,24.459925239930534
B0IB1AFHQ6,衡生楼,商务住宅;住宅区;住宅小区,120302,阳台山路与育青路交叉口南60米,思明区,118.10277,24.459226,"118.102770,24.459226",118.09779935959217,24.46186804214036
B0KU5ARG7J,文明公寓,商务住宅;住宅区;住宅小区,120302,万寿路与万石路交叉口西120米,思明区,118.10571,24.45906,"118.105710,24.459060",118.10074159987639,24.46170278403349
B025002PNW,太子山庄,商务住宅;住宅区;住宅小区,120302,阳台山路3号(将军祠地铁站4号口步行300米),思明区,118.103028,24.460071,"118.103028,24.460071",118.09805747838277,24.462713246482007
B0FFH1GK76,育青路教卫大院,商务住宅;住宅区;住宅小区,120302,育青路,思明区,118.098384,24.456953,"118.098384,24.456953",118.09341094932506,24.459594169651446
B0KU7H0PSZ,一建公司家属花园,商务住宅;住宅区;住宅小区,120302,万石路与万石北路交叉口西40米,思明区,118.108115,24.458211,"118.108115,24.458211",118.10314877761027,24.460854532368067
B0FFK9GL3O,万寿学苑,商务住宅;住宅区;住宅小区,120302,万寿路39号,思明区,118.1058,24.459763,"118.105800,24.459763",118.10083162383134,24.462405939468024
B0H0RN8HE4,万寿苑,商务住宅;住宅区;住宅小区,120302,万寿路164-178号,思明区,118.107939,24.458376,"118.107939,24.458376",118.10297260199853,24.46101948804809
B0HRLMYC4M,省安大院,商务住宅;住宅区;住宅小区,120302,万寿路71-75号,思明区,118.108165,24.458569,"118.108165,24.458569",118.10319879865882,24.46121261818967
B02500QJPL,育青嘉园,商务住宅;住宅区;住宅小区,120302,育青路16-22号,思明区,118.097911,24.457153,"118.097911,24.457153",118.09293771188325,24.459794206163526
B0FFFA5G7G,太子山公寓,商务住宅;住宅区;住宅小区,120302,万寿路12号(将军祠地铁站3号口步行410米),思明区,118.103707,24.460241,"118.103707,24.460241",118.09873695345841,24.46288342995154
B0FFHIGX4Y,万寿花园,商务住宅;住宅区;住宅小区,120302,万寿路21-3号附近(将军祠地铁站3号口步行330米),思明区,118.102844,24.460655,"118.102844,24.460655",118.09787330803539,24.463297312562233
B0KR5HYXRG,万寿路15-19号小区,商务住宅;住宅区;住宅小区,120302,万寿路与万寿北路交叉口东60米,思明区,118.102582,24.460487,"118.102582,24.460487",118.09761114006008,24.463129230870994
B02500Q8QW,文园公寓,商务住宅;住宅区;住宅小区,120302,万寿路109号,思明区,118.10848,24.459274,"118.108480,24.459274",118.103514045251,24.461917881352687
B02500QJ6C,万仕嘉园,商务住宅;住宅区;住宅小区,120302,育青路西山路,思明区,118.096846,24.455753,"118.096846,24.455753",118.09187234951973,24.458393987572943
B0I2RDTN84,文园公寓一期,商务住宅;住宅区;住宅小区,120302,万寿路与万石路交叉口东160米,思明区,118.10855,24.459047,"118.108550,24.459047",118.10358412822212,24.461690871465105
B02500Q8QU,万寿新城,商务住宅;住宅区;住宅小区,120302,万寿路万寿北里121号(将军祠地铁站4号口步行460米),思明区,118.10361,24.461172,"118.103610,24.461172",118.09863981560363,24.463814572652925
B0I2RDUA46,文园公寓二期,商务住宅;住宅区;住宅小区,120302,万寿路45-4号附近,思明区,118.108403,24.459554,"118.108403,24.459554",118.1034369520578,24.462197897833352
B0JBOZMCA5,思明区文化和旅游局宿舍,商务住宅;住宅区;宿舍,120303,万寿北路与文屏西路交叉口东南100米,思明区,118.105005,24.460815,"118.105005,24.460815",118.10003590307872,24.463457879446555
B02500QE0Q,阳鸿新城,商务住宅;住宅区;住宅小区,120302,梧村街道万寿北社区文园路65号(将军祠地铁站4号口步行90米),思明区,118.101211,24.460897,"118.101211,24.460897",118.09623922073617,24.46353908112314
B0FFHOJOS7,万景公寓,商务住宅;住宅区;住宅小区,120302,万寿北路44-54号,思明区,118.105868,24.460775,"118.105868,24.460775",118.10089960761253,24.4634181425165
B0FFGNP9G3,万寿阁,商务住宅;住宅区;住宅小区,120302,万寿路53号,思明区,118.109844,24.458756,"118.109844,24.458756",118.10487942063091,24.461400425863914
B0KAYA2D0O,育青社区,商务住宅;住宅区;住宅小区,120302,文园路辅路与育青路交叉口东240米,思明区,118.096453,24.456146,"118.096453,24.456146",118.09147916415398,24.458787085418827
B02500QIXM,福建省厦门第一中学(思明校区)学生公寓,商务住宅;住宅区;宿舍,120303,文园路75-2号(将军祠地铁站1号口步行310米),思明区,118.0976,24.458962,"118.097600,24.458962",118.09262644097056,24.461603538378544
B025003J7Z,万寿山庄,商务住宅;住宅区;住宅小区,120302,万寿路13号(将军祠地铁站4号口步行450米),思明区,118.104232,24.462198,"118.104232,24.462198",118.09926220418996,24.4648409092843
B0250043MK,文馨园,商务住宅;住宅区;住宅小区,120302,开元街道将军祠社区文园路82-88号(将军祠地铁站1号口步行230米),思明区,118.098197,24.4604,"118.098197,24.460400",118.09322361199781,24.46304178908661
B0FFH1N15E,文园春晓西区,商务住宅;住宅区;住宅小区,120302,文园路59-3号(将军祠地铁站4号口步行340米),思明区,118.102365,24.4621,"118.102365,24.462100",118.09739387738325,24.464742476538024
B02500TRH6,万寿山,商务住宅;住宅区;住宅区,120300,文屏路与站南路交叉口西南160米,思明区,118.108023,24.460848,"118.108023,24.460848",118.10305650233252,24.463491966010935
B0250043MT,宝成花园,商务住宅;住宅区;住宅小区,120302,将军祠路149-151号,思明区,118.09941,24.461306,"118.099410,24.461306",118.09443715684907,24.463947984617143
B0M6C7VLKO,育青公寓,商务住宅;住宅区;住宅小区,120302,育青路与文园路辅路交叉口东南180米,思明区,118.09571,24.455924,"118.095710,24.455924",118.09073590341463,24.458565112824633
B025003J56,电化宿舍,商务住宅;住宅区;宿舍,120303,文屏路170-172号,思明区,118.110482,24.459705,"118.110482,24.459705",118.10551800661216,24.462349920375345
B0250040RX,电台山小区,商务住宅;住宅区;住宅小区,120302,白鹤路27-29号(将军祠地铁站1号口步行290米),思明区,118.097155,24.459889,"118.097155,24.459889",118.09218118085208,24.462530719830383
B0G1SRCHCD,文园春晓,商务住宅;住宅区;住宅小区,120302,文园路59之六301文园路59之六,思明区,118.102593,24.462425,"118.102593,24.462425",118.09762200821619,24.465067576674656
B0250040RR,雅观园,商务住宅;住宅区;住宅小区,120302,将军祠路33-35号(将军祠地铁站3号口步行80米),思明区,118.099771,24.461548,"118.099771,24.461548",118.09479833450314,24.46419005016189
B0FFGYRDXV,五交化宿舍,商务住宅;住宅区;宿舍,120303,文屏路168号,思明区,118.1097,24.460277,"118.109700,24.460277",118.10473516617617,24.462921627539934
B0FFH03S1C,文园花园,商务住宅;住宅区;住宅小区,120302,将军祠路18-20号(将军祠地铁站3号口步行240米),思明区,118.10079,24.462172,"118.100790,24.462172",118.09581787351746,24.46481425499754
B0FFIA7KAB,文屏家园,商务住宅;住宅区;住宅区,120300,文屏路166-168号,思明区,118.109995,24.460537,"118.109995,24.460537",118.10503044587047,24.463181820039665
B0I6CSL9RE,文屏学苑,商务住宅;住宅区;住宅区,120300,文屏路108-114,思明区,118.107001,24.462336,"118.107001,24.462336",118.10203346814095,24.464979821259856
B0JB31L841,合佳园地,商务住宅;住宅区;住宅小区,120302,文园路与阳鸿路交叉口西南120米,思明区,118.1013,24.462194,"118.101300,24.462194",118.09632818256615,24.46483632303013
B0FFFVJ4DE,将军祠小区,商务住宅;住宅区;住宅小区,120302,将军祠路1-80号(将军祠地铁站3号口步行110米),思明区,118.099466,24.462469,"118.099466,24.462469",118.09449310306874,24.465111193523665
B0KRZC88UA,文屏路106号小区,商务住宅;住宅区;住宅小区,120302,文屏西路与文屏路交叉口西40米,思明区,118.108083,24.462486,"118.108083,24.462486",118.10311644050701,24.465130281476423
B0FFGS8OF4,厦门市第三建筑工程有限公司宿舍,商务住宅;住宅区;宿舍,120303,万寿路附近,思明区,118.111588,24.459436,"118.111588,24.459436",118.106625202225,24.462081473016475
B02500QAT7,领秀城,商务住宅;住宅区;住宅小区,120302,文屏路37-55号,思明区,118.111571,24.461551,"118.111571,24.461551",118.10660803179583,24.464196840431182
B02500QEAH,亿力百家苑,商务住宅;住宅区;住宅小区,120302,溪岸街60-70(将军祠地铁站3号口步行410米),思明区,118.096329,24.461778,"118.096329,24.461778",118.09135471111713,24.46442010739567
B0K2OS60JD,白鹤山路小区,商务住宅;住宅区;住宅小区,120302,溪岸街与公园东路交叉口东220米,思明区,118.095428,24.461509,"118.095428,24.461509",118.09045340373295,24.464151150218353
B0G057L6LQ,文灶地铁社区,商务住宅;住宅区;住宅小区,120302,梧村街道滨中社区禾祥东一里1-38号,思明区,118.103401,24.47019,"118.103401,24.470190",118.09843001582325,24.47283408683651
B0MDDXR8WL,禾祥东一里,商务住宅;住宅区;住宅小区,120302,湖滨南路辅路与滨中路交叉口南80米,思明区,118.104175,24.471675,"118.104175,24.471675",118.09920447962793,24.474319524989838
B0MGZCJDCX,湖滨南路248-4号,商务住宅;住宅区;住宅小区,120302,湖滨南路辅路与滨中路交叉口东南80米,思明区,118.104553,24.471793,"118.104553,24.471793",118.09958275987269,24.4744376459843
B0FFHM4H14,滨中社区,商务住宅;住宅区;住宅小区,120302,禾祥东路1号106室(文灶地铁站6号口步行100米),思明区,118.103453,24.469105,"118.103453,24.469105",118.0984821313174,24.471748914849616
B025002JY9,海燕新村,商务住宅;住宅区;住宅小区,120302,禾祥东路7号(文灶地铁站6号口步行300米),思明区,118.105695,24.469969,"118.105695,24.469969",118.1007258032387,24.472613681602283
B0I2NHPQFF,会长9号,商务住宅;住宅区;住宅小区,120302,后埭溪路22号1号楼302室,思明区,118.105456,24.470638,"118.105456,24.470638",118.10048655928067,24.473282718311356
B0L1KLVKA1,果建小区,商务住宅;住宅区;住宅小区,120302,湖滨南路辅路与后埭溪路交叉口西南120米,思明区,118.105025,24.471725,"118.105025,24.471725",118.10005513453181,24.47436976949776
B0250040MF,航专宿舍,商务住宅;住宅区;宿舍,120303,湖滨中路51-53号(文灶地铁站6号口步行180米),思明区,118.101865,24.469458,"118.101865,24.469458",118.09689301859636,24.472101664826287
B0MA2UQZD5,宝龙天地文灶潮场2号广场,商务住宅;住宅区;社区中心,120304,湖滨中路辅路与湖滨南路交叉口东南60米,思明区,118.101682,24.470642,"118.101682,24.470642",118.09670981570581,24.473285836219333
B0250040MD,海关宿舍,商务住宅;住宅区;宿舍,120303,湖滨中路47-49号(文灶地铁站6号口步行150米),思明区,118.102074,24.469154,"118.102074,24.469154",118.0971021768383,24.471797647832194
B0250041RS,建发壹里,商务住宅;住宅区;宿舍,120303,湖滨一里10,思明区,118.101982,24.472421,"118.101982,24.472421",118.09700988157282,24.47506518233368
B025003YJS,翠碧花苑,商务住宅;住宅区;住宅小区,120302,禾祥西路927号(文灶地铁站6号口步行170米),思明区,118.101567,24.469278,"118.101567,24.469278",118.09659484063077,24.471921588170673
B025003Z8E,银兴苑小区,商务住宅;住宅区;住宅小区,120302,后埭溪路240-246号附近,思明区,118.106518,24.470943,"118.106518,24.470943",118.10154942755831,24.47358812665496
B0K6L7JTJY,感光宿舍,商务住宅;住宅区;宿舍,120303,湖滨中路与禾祥西路交叉口西北100米,思明区,118.101681,24.469577,"118.101681,24.469577",118.09670889166703,24.47222065608443
B0FFGFG6MY,厦罐宿舍,商务住宅;住宅区;宿舍,120303,湖滨中路71号(文灶地铁站6号口步行260米),思明区,118.101442,24.469546,"118.101442,24.469546",118.0964697425154,24.472189615441238
B0250042ET,龙景台,商务住宅;住宅区;住宅小区,120302,梧村街道金祥社区后埭溪路248-266号,思明区,118.106513,24.471514,"118.106513,24.471514",118.10154438218956,24.474159220740827
B0250043MR,奔马新村,商务住宅;住宅区;住宅小区,120302,禾祥东路15之1-2,思明区,118.107006,24.470352,"118.107006,24.470352",118.10203789630577,24.472997206926568
B02500416H,古龙小区,商务住宅;住宅区;住宅小区,120302,禾祥西路692号(文灶地铁站6号口步行180米),思明区,118.102057,24.468033,"118.102057,24.468033",118.0970852462908,24.470676453859657
B025004RJI,古龙湖景,商务住宅;住宅区;住宅小区,120302,湖滨一里96-101号,思明区,118.103063,24.473558,"118.103063,24.473558",118.09809153312158,24.47620257600822
B0250043NN,城市花园(汇文路),商务住宅;住宅区;住宅小区,120302,汇文路51-57号(文灶地铁站2号口步行260米),思明区,118.105589,24.467759,"118.105589,24.467759",118.10061987495925,24.470403271366873
B0250042EU,金象嘉园,商务住宅;住宅区;住宅小区,120302,湖滨南三里(湖滨东路地铁站2号口步行240米),思明区,118.106878,24.47224,"118.106878,24.472240",118.10190964770669,24.474885475689014
B0KUR5VQYL,交警宿舍,商务住宅;住宅区;宿舍,120303,湖滨南路辅路与后埭溪路交叉口东40米,思明区,118.106089,24.472518,"118.106089,24.472518",118.10111994851145,24.475163240455714
B0L2GNSS30,金象嘉园2期,商务住宅;住宅区;住宅小区,120302,后埭溪路与湖滨南路辅路交叉口东南80米,思明区,118.106475,24.472125,"118.106475,24.472125",118.10150630552471,24.47477030940572
B0250043MU,益城广场,商务住宅;住宅区;住宅小区,120302,禾祥东路14-16号(文灶地铁站6号口步行480米),思明区,118.107303,24.469475,"118.107303,24.469475",118.10233522405339,24.4721201728509
B0MU4RBPH8,粮油宿舍公寓,商务住宅;住宅区;宿舍,120303,后埭溪路与金榜西四路交叉口西南120米,思明区,118.105925,24.468475,"118.105925,24.468475",118.10095610160107,24.471119503460667
B02500T4MX,禾祥观斓,商务住宅;住宅区;住宅小区,120302,湖滨南路272号之3号,思明区,118.107399,24.471557,"118.107399,24.471557",118.10243116077278,24.474202561599768
B0250041IC,嘉禾花园,商务住宅;住宅区;住宅小区,120302,湖滨南路210号,思明区,118.100126,24.470252,"118.100126,24.470252",118.09515290635261,24.472895584260467
B0J3XM2G8B,湖滨一里小区,商务住宅;住宅区;住宅小区,120302,湖滨一里12号,思明区,118.101611,24.473374,"118.101611,24.473374",118.09663857393724,24.47601828213279
B025003ZWU,银龙广场,商务住宅;住宅区;住宅小区,120302,后埭溪路109-129号,思明区,118.106657,24.468223,"118.106657,24.468223",118.10168874343694,24.470867715827588
B0M6BHHF4Z,湖滨二里一区,商务住宅;住宅区;住宅小区,120302,滨中路与知礼路交叉口东100米,思明区,118.104431,24.474092,"118.104431,24.474092",118.09946050062007,24.47673699486982
B025004ACF,厦门市表牌厂职工宿舍,商务住宅;住宅区;宿舍,120303,湖滨南路272号之3-5,思明区,118.107326,24.472361,"118.107326,24.472361",118.10235803721858,24.47500666730928
B025004B0D,文华阁,商务住宅;住宅区;住宅小区,120302,后埭溪路132号鹭腾花园,思明区,118.107518,24.468818,"118.107518,24.468818",118.10255046538354,24.471463146233656
B0KUHC8YV3,九州宿舍,商务住宅;住宅区;宿舍,120303,禾祥东路17号(湖滨东路地铁站2号口步行430米),思明区,118.10783,24.470382,"118.107830,24.470382",118.10286263831091,24.473027538085983
B0250043S3,湖滨二里,商务住宅;住宅区;住宅小区,120302,湖滨二里47号,思明区,118.104247,24.474598,"118.104247,24.474598",118.09927632388957,24.47724302922367
B0250043RS,国贸广场,商务住宅;住宅区;住宅小区,120302,禾祥西路813-875号,思明区,118.099619,24.469082,"118.099619,24.469082",118.09464570977504,24.47172534804408
B0FFGFFPT1,国贸广场3期,商务住宅;住宅区;住宅小区,120302,禾祥西路与后滨东三路交叉口东160米,思明区,118.10027,24.46884,"118.100270,24.468840",118.09529708987205,24.471483357693195
B0LUK7VECX,银龙广场2期,商务住宅;住宅区;住宅小区,120302,后埭溪路与汇文路交叉口西北60米,思明区,118.106738,24.468175,"118.106738,24.468175",118.10176981740139,24.47081973726061
B0LUK7QOYB,银龙广场1期,商务住宅;住宅区;住宅小区,120302,后埭溪路与汇文路交叉口西北80米,思明区,118.106705,24.468209,"118.106705,24.468209",118.10173678619334,24.470853730963544
