lon_wgs84,lat_wgs84,name,case,office_count,residential_count,mall_count,metro_station_count,dist_to_nearest_luckin,dist_to_nearest_starbucks,dist_to_nearest_metro_exit
118.09561680436344,24.464120109977134,瑞幸咖啡,1,5,59,2,1,634.5124380615532,954.8892281150855,40.22708764900295
118.0742221833061,24.46598733728365,luckin coffee 瑞幸咖啡(禾祥首府店),1,28,72,2,0,172.84799702010872,417.3580250809279,1287.4004661260153
118.11831881376408,24.48898915867408,瑞幸咖啡(长青路店),1,28,40,2,1,347.34565077538116,478.6534200207012,227.49759118438493
118.12569382880218,24.4954864082418,瑞幸咖啡(江头西路店),1,31,44,4,1,12.515878927898394,390.3347491718844,291.99974469562557
118.09685386570726,24.47387695813907,瑞幸咖啡(厦门地铁大厦店),1,14,35,1,1,190.5806691671784,196.94260116159043,267.57387243925524
118.07396052182352,24.46296002576291,瑞幸咖啡(银行中心店),1,22,72,2,0,138.3689923989757,89.9079452051639,1092.7669942307384
118.0715992583575,24.456078936613626,瑞幸咖啡(中山路旗舰店),1,11,29,5,0,153.60162913099114,64.68582533175262,656.3262807662273
118.07700583692254,24.455829312611048,瑞幸咖啡(中华城店),1,17,56,14,1,136.91555070871718,96.31995293020158,245.25906394448157
118.10928693039772,24.494351398843445,luckin coffee 瑞幸咖啡(厦门筼筜天虹购物中心店),1,24,26,2,0,290.98281051412005,108.99581814931823,605.3647461619562
118.0718209427058,24.486488902965107,瑞幸咖啡(港航大厦店),1,11,16,0,1,782.3074611717448,265.37671963008853,79.78779628005982
118.08070217048504,24.467320006673912,瑞幸咖啡(斗西路美食街店),1,29,71,0,0,10.83570071697222,628.1282258675008,979.3662926633567
118.07167152041032,24.493552121724452,瑞幸咖啡(海上世界购物中心店),1,8,9,2,0,224.82277469982793,98.58595460506601,562.3686231558603
118.1060484011212,24.492468156185396,瑞幸咖啡(厦门五一广场店),1,16,23,2,0,388.8344808340324,212.06696347238253,506.4248456000803
118.11717426483136,24.486032579199954,瑞幸咖啡(莲花路口店),1,27,44,3,1,111.10739737857796,215.8832127556896,52.69169507741828
118.0745461749342,24.464088729255938,瑞幸咖啡(厦门东方时代广场店),1,25,75,2,0,82.04615025242697,208.20039996083779,1148.0743567199434
118.10540109936784,24.473302762884497,瑞幸咖啡(禾祥东路万象城店),1,29,65,7,2,284.448556993315,166.16565504781929,311.50215439885784
118.09757045453364,24.472285814956955,瑞幸咖啡(文灶宝龙天地店),1,20,44,1,1,190.5806691671784,49.697304817980516,83.11728053527504
118.12656563014562,24.520578882927857,瑞幸咖啡(厦门创新创业园店),1,14,8,0,0,923.2875529970368,1498.9177535057954,634.8772952535605
118.09159889120076,24.491051460414944,瑞幸咖啡(七星大厦店),1,15,25,1,0,233.17709529743908,198.12178031420572,640.4450649682761
118.11717226243952,24.48602357587087,瑞幸咖啡(莲花路口店),1,27,44,3,1,110.4328663037231,214.90880598800604,52.01825087361914
118.08559553517507,24.516752245150823,瑞幸咖啡(自贸金融中心店),1,18,1,0,0,252.78619542592477,711.4592539524281,1708.568858843482
118.1360170363734,24.49809706789968,luckin coffee 瑞幸咖啡(新景华府店),1,7,51,0,1,407.23917318888397,1368.032718073926,376.6029903381712
118.0796480397082,24.45760988315152,luckin coffee 瑞幸咖啡(古城东路店),1,19,69,12,0,332.57712245956037,302.9736687390962,419.1702383806205
118.1254097169296,24.47587298738508,瑞幸咖啡(浦南壹里店),1,4,35,0,0,445.62378621083417,1235.3416874080795,1214.3777197693976
118.0871347499054,24.461228272249866,瑞幸咖啡(深田国际大厦店),1,13,37,1,1,561.957480074227,1084.7851688485177,276.39851874061895
118.10419822691134,24.52424449588279,瑞幸咖啡(鹭港万达广场店),1,13,10,2,0,683.8085658849018,94.10499674638926,686.7913566954237
118.11416774724492,24.515734062640583,瑞幸咖啡(嘉禾新天地店),1,30,35,1,1,279.67555905948154,819.732866318574,48.91212437107458
118.1129907584999,24.479061761751407,瑞幸咖啡(莲坂外图店),1,30,65,4,1,158.16746331236797,402.6465632822357,62.9474613020783
118.07792469185944,24.454067337711805,瑞幸咖啡(镇海路店),1,11,48,12,1,216.20621243555183,133.62338745347375,29.265036199143147
118.07611307405826,24.456757149245224,瑞幸咖啡(厦门中山路步行街店),1,12,59,14,1,136.91555070871718,144.25281847881078,378.43748250565756
118.10826303649964,24.51782894297667,瑞幸咖啡(豪利思城店),1,30,39,0,0,641.6498196113033,818.2412455221654,501.0211406593684
118.09940361368425,24.48847185073828,瑞幸咖啡(宏泰中心店),1,20,15,0,2,218.04448236464532,634.8364821265409,63.70203783710818
118.19045065080306,24.488355861293748,luckin coffee 瑞幸咖啡(厦门雀氏财富中心店),1,37,8,1,1,87.19455263444115,1028.7437602337966,249.4765939999891
118.06867397811494,24.45879945892477,瑞幸咖啡(厦门轮渡店),1,13,13,2,0,210.46039815651153,387.8929895313036,1072.566114681406
118.11210795359491,24.47385119952652,瑞幸咖啡(华夏大酒店店),1,24,50,5,1,275.62657628688174,208.80215209451066,275.57863000741037
118.116226881148,24.48552760616586,luckin coffee 瑞幸咖啡(磐基名品中心店),1,23,44,3,1,110.4328663037231,134.4859245726486,9.817543247452718
118.10106293404942,24.474697143347804,瑞幸咖啡(皇达大厦店),1,9,57,2,0,436.1522945174381,395.49993554258504,296.8015704492902
118.1154559654314,24.482540429824507,瑞幸咖啡(新景中心店),1,22,49,7,2,333.2752914931988,209.272377483289,285.6687014689556
118.08962002054643,24.465764550623355,瑞幸咖啡(海翼大厦店),1,15,55,3,0,561.957480074227,706.3312835297046,539.5262420516195
118.07384846639518,24.464464389904855,瑞幸咖啡(亿力大厦店),1,26,68,2,0,82.04615025242697,253.2205151044735,1230.0563941591479
118.12227021078095,24.50368152108372,瑞幸咖啡(厦门SM一期城市广场店),1,11,33,12,1,277.20259566766185,90.29682684165445,147.12330337795981
118.06796437682068,24.46058557359105,瑞幸咖啡(厦门财富中心店),1,7,15,1,0,210.46039815651153,592.4726079930101,1255.3596052410173
118.111773884852,24.44079986598817,瑞幸咖啡(厦大学生公寓店),1,0,27,0,0,26.02471659450732,679.9993178672308,3003.1180792861924
118.10832161346484,24.496826134396365,瑞幸咖啡(厦门悦享中心店),1,22,26,2,0,290.98281051412005,277.00767023562696,892.8356537491042
118.10900528055944,24.47085346453026,瑞幸咖啡(厦门禹悦汇店),1,27,30,8,1,189.83260631727953,66.09373408016806,34.01277354135378
118.08410804107756,24.43881601381482,瑞幸咖啡(厦门双子塔大师店),1,6,30,4,1,423.79016294837425,38.321635776414986,1714.298094811164
118.0873459103263,24.51512551710335,瑞幸咖啡(厦门口岸联检中心店),1,31,4,0,0,252.78619542592477,525.2867844985444,1471.6756037410455
118.06738574127672,24.447831852817327,瑞幸咖啡(鼓浪屿三友百货店),1,0,11,1,0,925.9488775617593,115.2287243354486,1128.596668834204
118.09167038937962,24.51231145164989,瑞幸咖啡(海峡设计文创园店),1,39,20,0,0,537.666038015673,167.91739765727846,952.4944970180434
118.10344038741088,24.470108286494423,瑞幸咖啡(厦禾路金榜公园站店),1,27,54,3,0,351.7875791965249,464.9688024674461,425.99243088615964
118.08071788015188,24.471326688087164,瑞幸咖啡(厦门禹洲广场店),1,17,35,1,0,432.9460096024176,486.95999068105436,1024.2325404058056
118.11539128849626,24.47672642769554,瑞幸咖啡(京华大酒店店),1,36,56,4,1,224.5761518467302,261.7274627410178,265.03483810284024
118.07538870127462,24.45186280174748,瑞幸咖啡(厦门第一广场店),1,7,27,4,1,354.5119405127199,405.15625856460366,203.29345775989242
118.09840274694815,24.49021487023244,luckin coffee 瑞幸咖啡(岳鹭广场店),1,22,22,0,2,218.04448236464532,687.1353410782073,135.51235435328255
118.09224360997932,24.47084217017431,luckin coffee 瑞幸咖啡(聚祥广场店),1,11,76,0,0,563.060233685815,612.5138857490176,611.5812070704502
118.08142116995133,24.48004375543122,瑞幸咖啡(官任国际社区店),1,17,30,1,1,828.8729864368185,317.66094199358383,221.44697587912307
118.0951117682034,24.516195982987455,瑞幸咖啡(联发华美空间店),1,33,32,0,0,553.7295824007273,385.98316177280526,900.843275537007
118.15164760570778,24.528452122131547,瑞幸咖啡(嘉园大厦店),1,64,30,0,1,101.58511907287472,814.5487123003976,234.35673437173773
118.17749215105408,24.51152419843308,瑞幸咖啡(海西金融广场店),1,25,20,2,0,300.947375530453,237.85348368694866,752.587409418408
118.1817585759033,24.511450978929396,瑞幸咖啡(万科云玺店),1,20,9,1,1,299.9524438968456,302.4499861154744,461.4895924233873
118.1245700227932,24.4924525850633,瑞幸咖啡(同亨大厦店),1,29,41,4,1,279.6192119644846,266.31098083737595,57.25974374679937
118.16803569688996,24.481235066792543,瑞幸咖啡(厦门才子汇店),1,26,23,0,0,448.0448563186048,740.9593544692963,617.2215386411582
118.07009920272458,24.45588240264337,瑞幸咖啡(瑞幸咖啡中山路旗舰店),1,11,20,4,0,153.60162913099114,88.91587036123137,779.1768452257037
118.1859479662295,24.477643426840256,瑞幸咖啡(厦门国际金融中心店),1,19,7,6,0,125.64887224831664,139.42783129890572,788.3083781311565
118.10995432130478,24.472331358125373,瑞幸咖啡(中闽百汇梧村店),1,28,41,9,1,189.83260631727953,242.38011204335504,41.043530739488176
118.13476029320756,24.485491282275476,瑞幸咖啡(启达时尚大厦店),1,18,37,0,0,801.9308703254305,514.2367451225883,921.9527921840358
118.09089676923692,24.489046214935083,瑞幸咖啡(厦门欢乐颂购物中心店),1,17,24,1,0,233.17709529743908,38.97636936108827,656.5265907737153
118.11321920733089,24.47712763074507,瑞幸咖啡(二轻大厦店),1,38,69,5,1,215.43008515417552,187.7348123710744,140.33665947874917
118.11304973599684,24.48048904110846,luckin coffee 瑞幸咖啡(富山名士园店),1,28,54,3,1,158.16746331236797,528.49326846389,166.28016578810715
118.13942125440812,24.50005164184388,瑞幸咖啡(后埔发展中心店),1,5,47,0,0,388.35702190736896,1728.9218473713158,758.6387929418686
118.1345586520055,24.51657438619048,luckin coffee 瑞幸咖啡(军梦双拥双创科技园店),1,15,24,0,1,923.2875529970368,1404.5870082299489,440.84337094641734
118.12022692404,24.502017043905752,瑞幸咖啡(厦门SM新生活广场店),1,10,28,12,1,277.20259566766185,7.969814320687794,71.73856067252576
118.13698516787724,24.539133659978045,瑞幸咖啡(航空商务广场店),1,10,1,0,0,717.1496022947823,975.6336614315367,1874.7530796835917
118.08255579630814,24.44236940537048,瑞幸咖啡(沙坡尾店),1,5,27,2,1,423.79016294837425,434.58973650453606,1291.2066703092175
118.08889657050985,24.483080573809534,luckin coffee 瑞幸咖啡(石亭小区店),1,8,10,0,1,691.0197336180075,727.0486529611528,49.52214389221781
118.16988808734484,24.48494715120981,瑞幸咖啡(国金广场店),1,30,19,2,1,349.7252784390806,298.2314390394075,185.58657658841628
118.07385134474302,24.493930181284416,瑞幸咖啡(海上世界2号楼店),1,5,12,2,0,224.82277469982793,317.73178570586003,621.7858709164481
118.11773457945866,24.479631103147387,瑞幸咖啡(明发商业广场南区店),1,27,44,5,1,396.3881682696281,542.3774464557832,412.3632021135172
118.12770809651153,24.501934891329764,瑞幸咖啡(台商会馆店),1,9,30,4,0,435.4033027581803,646.4193382887916,549.0493077556584
118.1007879637974,24.51282571919577,瑞幸咖啡(湖里公园地铁公寓店),1,24,21,0,2,685.5893421780532,124.26107858933831,329.3464437899274
118.18565835508348,24.49081099980662,瑞幸咖啡(瑞达国际金融中心店),1,17,10,0,1,413.9372746991492,760.9781405771948,310.6039925162356
118.15169841414227,24.53286871218613,瑞幸咖啡(首泰国际广场店),1,54,11,1,0,197.77819906014938,459.97088168934107,722.8411320430631
118.15340532680446,24.479956573455727,瑞幸咖啡(厦门加州城市广场店),1,6,23,5,0,341.0649133315004,293.8840411197423,1013.0627770402994
118.13554445208534,24.478285300508414,瑞幸咖啡(厦门金鸡亭店),1,5,32,0,0,801.9308703254305,1122.3319253847383,1594.3416453607465
118.10009208015136,24.433747186984327,瑞幸咖啡(曾厝垵店),1,0,6,0,1,348.22538238073645,1015.579453231689,3057.955597286044
118.11521106197073,24.518072267384788,瑞幸咖啡(日华国际大厦店),1,39,18,1,1,279.67555905948154,1013.6054314678593,318.50855523595646
118.17033571748458,24.477779842103608,瑞幸咖啡(莲前集团大厦店),1,14,22,0,0,448.0448563186048,1024.4066696415744,980.1952455479768
118.1392588376649,24.5288940931785,瑞幸咖啡(火炬新科广场店),1,11,27,0,0,539.2371083840023,46.6781920601928,722.2558267235862
118.11805988687814,24.552031638694828,瑞幸咖啡(机场北院儿里店),1,16,8,0,0,328.2336185119861,79.96873287799787,1382.6438154233742
118.14543043988743,24.534076855489925,瑞幸咖啡(清华海峡研究院店),1,15,22,1,0,487.0623302049662,895.3731658464475,1049.078838685584
118.1796265265972,24.50957185892748,瑞幸咖啡(鼎丰财富中心店),1,26,11,2,0,181.39205232111703,68.35265724219414,750.0207600200689
118.1870586093868,24.477139279568014,瑞幸咖啡(JFC品尚中心店),1,19,5,6,0,125.64887224831664,122.49169406987534,902.1929511190933
118.13946507230636,24.503955260965345,瑞幸咖啡(祥店国贸阳光店),1,5,23,0,0,432.3074435729346,1775.9145552887876,1113.432031771589
118.1450519159818,24.515083954156232,瑞幸咖啡(永建顶尚店),1,11,16,0,0,1016.8768504502087,1032.486594376908,716.7804649284144
118.10031274557012,24.468730887561584,瑞幸咖啡(中石化文灶店),1,21,59,2,1,351.7875791965249,473.36332838978365,93.84191286894703
118.15155344293736,24.527538847641154,瑞幸咖啡(锦厦科技大厦店),1,57,28,0,1,101.58511907287472,907.5928413476179,132.77501545928206
118.12816023110054,24.498024923385632,瑞幸咖啡(华永天地店),1,18,38,3,0,366.82175075690407,756.3827886052588,516.422256300409
118.15583904640852,24.511630669386353,瑞幸咖啡(厦门汇盈大厦店),1,7,11,3,0,305.40369267820023,181.03544790805694,1544.7122963680451
118.14182079575988,24.497317127813513,瑞幸咖啡(厦门日报社新闻大厦店),1,7,55,0,0,388.35702190736896,1375.843011399528,486.0879444977422
118.0989133937315,24.52809905555969,瑞幸咖啡(翔鹭花城店),1,7,30,0,0,684.7285654522159,683.3440299380632,1166.956401245697
118.15089263437768,24.48838138007188,luckin coffee 瑞幸咖啡(厦门蔡塘爱琴海购物中心店),1,5,10,3,1,967.0877044574917,26.181279480702287,188.23438236309144
118.120316384157,24.427779035750586,瑞幸咖啡(曾厝垵店),1,0,0,0,0,1320.5882633502108,213.80722272345565,4682.55649189291
118.15576928034451,24.477764534356822,瑞幸咖啡(瑞景商业广场店),1,7,25,5,0,341.0649133315004,58.18072996251721,1169.902068709672
118.16671538783604,24.50932271162487,瑞幸咖啡(厦门弘爱医院店),1,1,16,1,0,678.3592937283167,649.4465856104188,1545.3111008620863
118.15284651720825,24.52843328063085,瑞幸咖啡(无限青创大厦店),1,68,23,0,1,121.47782855822717,762.1734572582835,272.7676392760571
118.1678428343911,24.472441250360117,瑞幸咖啡(前埔东路店),1,1,24,1,0,642.9218982386833,1414.9741302495486,1579.6042426323
118.10675770270204,24.47105411811153,瑞幸咖啡(罗宾森购物广场店),1,31,44,8,1,228.88053127964727,112.86373373783547,217.4790498148277
118.15604629614714,24.529371229064456,瑞幸咖啡(力拓新城店),1,70,21,0,0,181.85396284692425,601.3329936371194,576.3921983971305
118.09576672790573,24.52202477027755,瑞幸咖啡(跨境电商店),1,15,28,0,0,648.8719979161384,962.696120724078,1245.9664071837967
118.11723153267754,24.511397283415462,瑞幸咖啡(湖里大唐世家店),1,9,41,1,2,231.2646680845303,249.3909676762118,211.24090091637441
118.12613865844013,24.509211888671732,瑞幸咖啡(联发欣悦里店),1,15,36,1,0,727.1239877003829,677.8760278097297,745.5470783681549
118.18689511976234,24.47865924525183,瑞幸咖啡(中航紫金广场店),1,17,5,6,0,147.88291961555313,72.08178217273452,769.2851594296301
118.18973999632338,24.488799731465463,瑞幸咖啡(匹克国际大厦店),1,41,12,1,1,87.19455263444115,976.8773604880809,198.6879022067349
118.16051702922655,24.534685124795327,瑞幸咖啡(海天广场店),1,15,16,1,1,456.01939208552443,485.8900435412767,94.63453655326752
118.09343648400048,24.438399105216416,luckin coffee 瑞幸咖啡(厦门大学科艺楼店),1,1,6,0,0,501.5289131532825,406.309740982892,2222.5283322137675
118.16813041796296,24.488539395058876,瑞幸咖啡(宝龙一城店),1,15,12,2,1,406.40455088766805,102.9206479532792,97.39184505096438
118.08815344378114,24.44055409505764,瑞幸咖啡(厦门大学西门演武1658店),1,5,34,2,1,453.0317608595748,356.4254101190537,1711.2010800959054
118.15430375825665,24.532912434012484,瑞幸咖啡(宏益华府店),1,68,14,1,0,257.30890671472065,253.03434627633558,665.0513923506218
118.11197313468762,24.440948048541895,瑞幸咖啡(厦门大学思明校区学生公寓店),1,0,28,0,0,26.02471659450732,701.2524468064619,3001.3492131591784
118.11394882919248,24.496403233899738,luckin coffee 瑞幸咖啡(屿后路店),1,14,38,0,0,524.2108023598802,625.1940976934931,832.2634472026506
118.08554882241413,24.471019470812543,luckin coffee 瑞幸咖啡(百脑汇科技大厦店),1,18,68,3,0,490.8081518807196,13.116798143979723,1223.5416301280097
118.12120649573852,24.474691896645073,luckin coffee 瑞幸咖啡(建发花园店),1,6,34,0,0,445.62378621083417,812.5331131492552,867.2069856644775
118.1731163724002,24.482088765273716,luckin coffee 瑞幸咖啡(明丰财富中心店),1,24,28,0,0,455.23318843876746,549.2611524483929,611.4575429250626
118.14065158556868,24.533593854319204,luckin coffee 瑞幸咖啡(围里村店),1,5,33,0,0,487.0623302049662,578.6747737008883,1204.7470376308424
118.14987506800466,24.532230387542487,瑞幸咖啡(博宏科技大厦店),1,46,14,1,0,197.77819906014938,656.8143287341892,670.031128438167
118.12740804805836,24.536627802673543,瑞幸咖啡(高崎机场T3航站楼B1店),1,8,1,0,0,780.847524235456,149.2229436412104,1538.2097696310193
118.17992204178655,24.484163695006536,瑞幸咖啡(创想中心B座店),1,10,15,0,1,277.7072936226687,180.74873217607586,50.266571727936984
118.17608150369432,24.485518839128037,瑞幸咖啡(创想中心A座店),1,25,17,1,1,253.92864044473586,452.14863635177767,399.67927350299703
118.12268859849397,24.494299650020075,luckin coffee 瑞幸咖啡(汇腾天虹店),1,32,39,3,1,279.6192119644846,71.06191973288965,20.20651138121558
118.15776652069114,24.529840460630144,瑞幸咖啡(希尼亚国际大厦店),1,54,18,0,0,181.85396284692425,586.2737453208342,575.2815855958526
118.15202166118505,24.540395099930393,瑞幸咖啡(厦门五石商务中心店),1,8,9,0,0,834.1178127698057,724.8153800981169,849.6893260982638
118.17529098931378,24.493366570250885,瑞幸咖啡(软件园二期27号楼店),1,4,0,1,0,176.25224061995212,792.6732618619462,872.4920376099121
118.12126802302092,24.552450032122323,luckin coffee 瑞幸咖啡(航空自贸广场店),1,19,8,1,0,328.2336185119861,325.6778994489839,1594.769045773473
118.18209204872826,24.530320890289104,瑞幸咖啡(宝拓大厦店),1,22,12,2,0,157.16897363323906,264.9050806434821,1206.5800776964898
118.09747701237588,24.435785973738582,瑞幸咖啡(厦门大学南门白城沙滩店),1,0,7,0,0,348.22538238073645,830.3951620380157,2711.636387410083
118.15278823771972,24.530366395915973,luckin coffee 瑞幸咖啡(合立道大厦店),1,83,20,0,0,214.15512380825297,573.2916416748642,466.3644069959962
118.17801963868442,24.508849815488222,瑞幸咖啡(新景地大厦店),1,27,15,2,0,181.39205232111703,178.47213735457441,911.4728092117531
118.17453598744818,24.50928641468043,瑞幸咖啡(厦门中国人寿大厦店),1,25,17,3,0,298.4157099023233,55.78848159206253,1139.5331598826194
118.11037348124614,24.435482758284188,瑞幸咖啡(软件园一期北区店),1,12,15,0,0,605.6783403664434,76.13991164314963,3434.534168344198
118.12706491147296,24.52958358329941,luckin coffee 瑞幸咖啡(太古生活区店),1,6,16,0,0,780.847524235456,785.2586857225344,1142.8155813076207
118.19194282806392,24.491180779349257,瑞幸咖啡(观音山世纪大厦店),1,28,5,1,0,160.34935244269184,1290.990041535212,498.31950859181495
118.11031284879591,24.52685940676476,luckin coffee 瑞幸咖啡(大潭街店),1,8,10,0,1,683.8085658849018,605.247234527527,4.041641061780896
118.19044508947768,24.496148022558614,瑞幸咖啡(观音山商务区10号楼店),1,21,9,1,1,206.58608163768432,1525.4627274762888,187.4574119594298
118.18186339731923,24.531724636394216,瑞幸咖啡(同安商务大厦店),1,22,11,2,0,157.16897363323906,129.89871176048908,1346.1459169865827
118.19141802341753,24.485815083631092,瑞幸咖啡(观音山信义国际中心店),1,27,7,1,1,100.73912172222693,845.620252059561,379.55169407589113
118.15544385925244,24.444218884730724,瑞幸咖啡(黄厝海滩日出店),1,0,5,0,0,2087.935675730571,3727.5235887054146,4854.209802029084
118.1571498127983,24.51828693980329,瑞幸咖啡(湾悦城SOHO湾区A座店),1,7,20,2,0,490.80056955340615,123.50468100538497,937.5151953877315
118.15962892216668,24.462680098854563,瑞幸咖啡(厦门城市职业学院学生街店),1,0,8,0,0,1364.3953695791674,1741.669668692773,2794.471479019786
118.17125720340285,24.503565489679556,瑞幸咖啡(金龙广场店),1,10,11,1,0,319.1110537640268,333.79204926237367,1700.929091802844
118.1868883511617,24.531887557047064,luckin coffee 瑞幸咖啡(砂之船奥特莱斯店),1,14,2,2,0,509.3813616880347,16.302551986643632,1589.3484518564096
118.18090125945749,24.486505843439687,瑞幸咖啡(软件园二期40号楼店),1,9,13,0,1,172.9948829127471,100.60377126402604,324.34788260801054
118.17349877982558,24.489823690548036,瑞幸咖啡(软件园二期16号楼店),1,13,6,2,0,303.5649248596257,360.4586550210705,468.532417625085
118.17344653124152,24.50563688430895,瑞幸咖啡(湖里万达C区2号楼店),1,18,15,2,0,163.21775529025584,146.33769081900417,1486.4978032921651
118.17842622852864,24.48632729639597,瑞幸咖啡(软件园二期52号楼店),1,14,6,0,1,151.96002340259412,249.00611423459887,298.8644483124128
118.19147408605996,24.48672331853177,瑞幸咖啡(观音山汇金国际中心店),1,33,6,1,1,100.73912172222693,937.4435224390096,346.50335523393596
118.18633055414077,24.496271989901757,瑞幸咖啡(观音山海西金谷广场T3店),1,18,13,1,1,2.1137949304092425,1309.2489331218223,151.3274197401694
118.1794506674036,24.487329329891978,瑞幸咖啡(厦门软件园二期57号楼店),1,13,8,0,1,151.96002340259412,231.95979292086602,386.4982531219472
118.17292412854108,24.50703109626999,瑞幸咖啡(湖里万达广场5号门店),1,18,17,2,0,163.21775529025584,92.72067100639569,1421.0847478354417
118.17655948985885,24.48830015768867,瑞幸咖啡(软件园二期26号楼店),1,17,4,1,0,288.9990596989421,497.1836917137688,580.6276493994894
118.15505091682998,24.51429256939728,luckin coffee 瑞幸咖啡(五缘湾悦都汇购物中心店),1,9,14,4,0,305.40369267820023,55.48059931108447,1239.688799334787
118.18173504914012,24.48977085538254,瑞幸咖啡(软件园二期63号楼店),1,12,9,0,0,355.94450142326673,471.65804636038945,575.8900031939094
118.17355367157134,24.493291316554245,瑞幸咖啡(软件园二期15号楼店),1,5,6,1,0,176.25224061995212,660.9391041821913,746.7121332444958
118.18408048264034,24.47842426103251,瑞幸咖啡(特房波特曼财富中心店),1,18,10,6,0,208.08633137172052,80.16075464400276,613.9318982278472
118.18877132585634,24.495083030549697,瑞幸咖啡(观音山商务区7号楼店),1,22,10,1,1,15.803831956837913,1327.1119104606782,71.25732332771221
118.19114393806058,24.492430641165132,瑞幸咖啡(观音山世纪财富中心店),1,27,5,0,0,160.34935244269184,1295.996451033251,419.1402791932878
118.17196611722343,24.487468454810195,瑞幸咖啡(软件园生活广场店),1,21,11,2,1,303.5649248596257,61.18654382456039,209.405547097887
118.19042486817725,24.498636349987372,luckin coffee 瑞幸咖啡(海峡明珠广场店),1,17,11,1,2,275.5676217547161,1700.3951529637393,248.46702936662015
118.15677889169652,24.53239092007688,瑞幸咖啡(金海湾财富中心店),1,60,20,1,0,257.30890671472065,286.76658328574104,515.2561179146358
118.1435211000641,24.547175982911188,瑞幸咖啡(高崎机场T4航站楼店-安检内),1,0,0,0,0,1109.7354522960968,166.91294015820176,1980.7017876774898
118.1180268935023,24.50943980052138,luckin coffee 瑞幸咖啡(塘边宝龙天地店),1,8,42,1,1,231.2646680845303,27.561978757972334,19.87191595841195
118.19214345620853,24.488656725751813,瑞幸咖啡(观音山天瑞99商务中心店),1,33,6,1,1,174.75725546537507,1159.981311510369,422.37526944010745
118.15024350256388,24.524498151095944,luckin coffee 瑞幸咖啡(厦门韬瑞广场·拾尚里店),1,19,19,0,1,361.9355319284961,913.075223914588,107.3640977699925
118.12569482251942,24.495599426082748,luckincoffee,1,31,43,4,1,12.515878927898394,396.7769298917462,297.8169289271338
118.08071616160711,24.46741701576612,luckincoffee,1,29,71,0,0,10.83570071697222,620.276470818001,988.6801690295216
118.18633256019628,24.496252990622835,瑞幸咖啡总部大楼,1,18,13,1,1,2.1137949304092425,1307.4392603696754,150.88653703781392
118.1886279986964,24.495026777288704,瑞幸咖啡有限公司,1,21,10,1,1,15.803831956837913,1313.316455495213,55.99253972362495
118.14341388511143,24.530990879748696,(control),0,5,47,0,0,398.1459198679343,526.4308781208864,929.1989984496123
118.10353247351233,24.476155967633424,(control),0,13,53,2,1,297.89413206327,369.1213529667845,34.84098977742928
118.10251751673597,24.546742355752674,(control),0,0,2,0,0,1679.726567526511,1710.1790496095034,1109.012082058471
118.0925288327832,24.511051637561216,(control),0,39,26,0,0,164.40192641031487,274.1932782177023,836.389019406757
118.12972385684324,24.516689673369825,(control),0,15,8,0,0,490.0150870139979,1414.791637697674,505.44301154549976
118.19348646047428,24.51673839299002,(control),0,0,0,0,0,1324.7128727075017,1626.3445764082612,866.8758134963672
118.13749443889003,24.4860599885731,(control),0,15,24,0,0,284.1513834635226,769.3881221703037,729.2654844364874
118.0965040131228,24.49188873019593,(control),0,19,25,0,1,267.171430467604,635.3620362877158,144.36159111804955
118.14594293358763,24.4893473294897,(control),0,0,6,0,1,512.8821963118152,537.7159546407299,203.55196925271517
118.08867338087408,24.483769283421466,(control),0,8,11,0,1,79.54944198011817,661.2372000985098,84.46183355698481
118.11439445627381,24.51374779926738,(control),0,18,39,1,1,221.15260102448607,625.5327038746728,10.688288964050967
118.08259659363966,24.4681947969552,(control),0,30,63,4,0,209.14900117344405,420.7306247241014,1015.0717809222288
118.13510420905672,24.48622585634145,(control),0,18,33,0,0,88.49815495171458,527.2576857400967,835.3692314507366
118.09807319339993,24.52001221386576,(control),0,11,32,0,0,322.9142678168246,785.4332820673799,923.4130715102178
118.09990971520608,24.54128587536065,(control),0,4,0,0,0,1463.7745604868533,1873.2687577519434,1153.0963733771043
118.09261350213778,24.5364395396673,(control),0,2,1,0,0,1122.6591444669618,1766.7668769639301,1949.51025328871
118.10686000707744,24.510929800156422,(control),0,18,28,0,1,650.0594040939552,616.1675685903092,421.0564007202811
118.15587784577784,24.513901407490582,(control),0,9,10,3,0,94.31986002611964,75.39746444834455,1308.839207165899
118.14942737192432,24.486333961085816,(control),0,7,14,3,1,271.02846988019263,273.31707218142486,305.87769780932564
118.12268252731259,24.519916545051515,(control),0,21,11,1,1,400.19253637094954,1250.827900269347,330.3388550688071
118.11860318898061,24.441711489184605,(control),0,4,27,0,1,677.4324116293205,1049.7629285853284,3352.0002026981015
118.09503994699509,24.467890764704695,(control),0,10,61,2,2,421.6267588617021,589.18283634053,378.3465423289658
118.17789681700563,24.531512344903085,(control),0,12,10,0,0,402.52852698792765,313.072254010819,1076.9330067708183
118.16241818546415,24.461794231364497,(control),0,0,5,0,0,299.2608230688888,1925.223986690505,2844.088508629782
118.09253155850209,24.442912583392143,(control),0,0,15,0,0,508.15900556151183,663.3371848140494,1801.6271972075335
118.15759684106388,24.51039881703254,(control),0,3,7,1,0,224.34424543321077,373.2178499015855,1733.6022870816107
118.16873582879894,24.52758596227929,(control),0,0,4,0,1,1138.9851455711255,1336.417292821232,52.64820007036944
118.17354913119871,24.494711718565377,(control),0,4,8,1,0,157.2966238530262,781.0636854493724,875.40783463902
118.08421373173807,24.437335465965678,(control),0,8,21,3,1,164.300892529177,147.64348936086043,1868.6960028541848
118.19212114702667,24.497148307316024,(control),0,8,8,0,1,202.7742794930377,1720.5726876037165,335.95342667673924
118.10982180490203,24.51703484778273,(control),0,39,38,1,1,180.76026297365848,914.0426160421447,387.5132249388806
118.10260539910679,24.544896951490312,(control),0,0,0,0,0,1753.4906816132725,1791.8216327122016,991.9920733720164
118.06668396630563,24.448068423493662,(control),0,0,11,1,0,75.80953450507837,110.5375818486744,1178.8096974028008
118.09786836946748,24.53683318230162,(control),0,4,5,0,0,972.9814064082071,1487.4339534882502,1425.3418431660841
118.06084798231892,24.446375572897907,(control),0,0,9,0,0,682.0779635145666,589.0236258456368,1794.01536174636
118.15006611489255,24.504521435895686,(control),0,2,27,1,0,980.7958354633327,1120.1536806922607,1563.2118771293874
118.12182123034269,24.482658462883613,(control),0,13,34,4,0,532.8422750247356,515.7642408763766,523.5031777537407
118.17298518665643,24.515150345844503,(control),0,1,17,1,0,608.0977800459191,656.9121535807509,640.1764037471792
118.09367511307642,24.443194008387405,(control),0,0,8,0,0,531.524632511083,749.518878104865,1829.3472673741046
118.11277805931357,24.523761203293724,(control),0,9,8,0,1,424.3665426260571,827.4582318188759,362.5020735903346
118.143835787302,24.497939624899903,(control),0,4,44,0,0,215.5076474651478,1301.1808043779013,612.0779237226006
118.08562322936322,24.507230592468602,(control),0,8,12,1,0,831.8531128419363,370.3745521537148,1545.0607398860152
118.12798037794816,24.496557745011827,(control),0,21,39,2,0,163.4928710053436,650.4832365259077,463.517600192862
118.13602930227572,24.515928200792587,(control),0,17,25,0,0,165.2951330194688,1435.132846440181,560.7256575190418
118.18156444087714,24.50194184845491,(control),0,0,14,0,0,792.1453358164974,929.1848144715154,641.6177063148407
118.10879880740274,24.53206028999542,(control),0,1,16,0,0,596.014329252161,889.3932400720348,482.1018515855859
118.10132276840432,24.447364613534077,(control),0,0,0,0,0,1274.6940953660892,1612.8444964203677,1856.2338288024018
118.16364231622444,24.52597527785214,(control),0,1,16,0,1,733.1850729808593,970.5593441747958,378.0857877548532
118.12358560186713,24.535098397603758,(control),0,11,7,0,0,422.63977953523187,290.294108198492,1228.9274150712904
118.10804026943853,24.49432843498574,(control),0,21,26,2,0,126.35544903165237,17.369434211892973,634.6694789572003
118.12058875396336,24.485120851177754,(control),0,23,37,5,1,360.376298396491,315.0450323385899,244.50875282597508
118.17647070556978,24.51008098232718,(control),0,25,19,1,0,190.40705610814388,159.21757308671022,929.4574435865532
118.12030936653741,24.50025541606487,(control),0,16,39,11,1,195.25939247154287,188.59413590799682,65.901362073736
118.0795231362206,24.49297578635436,(control),0,1,30,0,0,584.3838484114222,877.3057693330778,885.889475448644
118.14947495133677,24.48196742967206,(control),0,4,13,1,0,456.34822122234317,716.3385308913859,789.062551534492
118.07999289226508,24.491455478982523,(control),0,2,28,0,0,680.0170598870523,941.6359406155636,847.7066449384333
118.11642490069234,24.550962976073244,(control),0,13,5,0,0,203.54472360915994,259.00875986527467,1205.421668926305
118.10333201403226,24.50909996517868,(control),0,15,23,0,1,486.48621767125604,538.0018818521087,265.0345785853172
118.16832224686918,24.526266037155608,(control),0,0,5,0,1,1140.2991554636258,1349.9147195042076,116.72515773134867
118.16585972485757,24.463237580880822,(control),0,0,4,0,0,634.5723674027347,1947.839366612432,2602.993934502446
118.18858493917764,24.499850100735287,(control),0,15,15,1,2,229.8446200251686,1476.5590466861731,159.1876681664436
118.15414963978506,24.443905163723937,(control),0,0,6,0,0,135.72466269057608,3675.301834921371,4901.0126917928765
118.10744346550865,24.508489197441985,(control),0,10,31,0,0,827.859591573277,827.3019532557244,671.8003034976856
118.1677830483565,24.48440882054854,(control),0,14,22,1,1,221.50620113185587,500.6610552479864,308.566396669345
118.17666285704837,24.511921198615994,(control),0,23,20,2,0,94.83278382408521,313.55106350842607,783.5923514445888
118.16259735133842,24.481058800837186,(control),0,7,30,0,0,551.504477170925,827.4914342448919,830.1912424174023
118.16409267418608,24.543099573471412,(control),0,0,8,1,0,999.7457740035758,1251.0495772920094,771.8040878952967
118.1584911528591,24.54553607861351,(control),0,0,7,1,0,868.0951961752088,1222.289635495195,945.8450303423264
118.13268153971858,24.53363631686719,(control),0,10,10,1,0,628.5955465196239,758.0781967340295,1428.983505169657
118.06480921886107,24.443868406343444,(control),0,0,11,0,0,510.7349929994632,398.955076442965,1593.0551980024509
118.12499444656669,24.477716054719284,(control),0,3,38,0,0,208.39300515392677,1082.7815483634083,1137.6865335489351
118.1396393002204,24.499417774753784,(control),0,6,51,0,0,73.58933180198287,1683.6592120896796,717.7410170004445
118.12989120064259,24.5223969429854,(control),0,12,23,1,1,392.49507012139173,1144.3825914467088,353.3028371113915
118.12769444899844,24.53724089391052,(control),0,6,0,0,0,73.83263738750512,191.85793081632687,1552.0711738548719
118.12694143569234,24.47486840659755,(control),0,3,25,0,0,190.9846829290799,1383.4197565332975,1394.3238037242627
118.07980624225154,24.479152865845347,(control),0,23,32,1,1,191.10010096780906,194.94508281344835,156.33448467031326
118.1114243214121,24.546598753800208,(control),0,5,8,0,0,902.0586405912687,957.953497804712,630.2254265126654
118.18461205729878,24.503506077807845,(control),0,2,17,0,1,798.6031359696441,908.7759054068522,405.27827289598457
118.09594141008128,24.5368024451525,(control),0,4,4,0,0,1009.7312039648481,1585.0561566442973,1613.3582423152914
118.10618097332521,24.532421927218323,(control),0,1,18,0,0,744.7506045128465,840.5699352246768,680.2425272072807
118.08270454697212,24.497463579512612,(control),0,3,30,0,0,978.7343285884494,1216.76713317831,1449.6600755371155
118.10733591762539,24.536153702789502,(control),0,2,8,0,0,1072.5130698210864,1268.694406033615,598.1458730933898
118.18529293648412,24.505850907238575,(control),0,4,12,0,1,706.7167386674035,772.9888466981241,419.21147728110253
118.14876675984002,24.505553191307776,(control),0,2,26,0,0,958.9818763646294,1101.3096914839462,1590.7330774588638
118.09631597087146,24.477187853660133,(control),0,9,13,0,0,370.67177549523075,551.7427171097602,626.9362787842906
118.07206142112092,24.456246637160543,(control),0,13,32,8,0,50.393280021985674,114.30347185860035,628.1962319866293
118.10053452569201,24.4889651309871,(control),0,15,14,1,2,126.95768040525095,507.9997746435427,122.8151512442924
118.16372737477967,24.495723177930888,(control),0,4,20,2,0,912.1205187178235,53.08070008529706,921.3622265482995
118.1443922234279,24.51705986719188,(control),0,8,16,0,0,228.79300283407068,1127.7427925072152,490.435895861128
118.09265632977295,24.52852419932757,(control),0,6,7,0,0,635.6300780118069,1284.1036085023643,1802.1743137685148
118.154271649016,24.487270876650264,(control),0,7,18,3,1,363.8456036481925,338.2017033352202,373.9397096685085
118.13447613889635,24.51137488879649,(control),0,24,24,1,0,575.8502587151071,1483.6777661659278,995.2119394259356
118.13107819327854,24.538009561955825,(control),0,10,2,0,0,402.0450664863906,543.8920009403379,1878.2732691126412
118.11920398385759,24.47942206099889,(control),0,17,39,4,0,150.70780174895967,623.0452409804312,553.1704568429668
118.11393904538097,24.457808228364975,(control),0,0,6,0,0,1528.711818371761,1526.8086027296517,1507.9646989969976
118.11948362158356,24.52270110623954,(control),0,13,6,0,0,670.9157367820137,1482.1352156951853,654.386920958828
118.111093230232,24.508965414005733,(control),0,6,33,0,0,677.7459643068275,730.0436385438634,588.759225863017
118.18155274180224,24.515489224246203,(control),0,3,6,1,1,447.68533236937765,648.0882358132826,223.44202231859035
118.1670652955404,24.52211557618659,(control),0,0,8,0,0,1090.397325155175,1032.4858885431743,568.6790474428956
118.15050622186578,24.51299462504826,(control),0,9,22,1,0,482.3819985098237,517.7626197134182,1223.543820844336
118.1208340396871,24.556354890532145,(control),0,10,5,0,0,434.6509563191376,487.2593764489957,1937.1178835374526
118.14694234926677,24.490876140131054,(control),0,2,11,0,1,486.39539057012803,512.5262250837513,157.2726148362856
118.17208563762213,24.507530980031593,(control),0,16,17,3,0,101.4042134046005,123.89968383937706,1418.8777074964325
118.14486874513034,24.524202709544163,(control),0,9,26,0,1,545.5074462483734,776.5835917618007,333.99144922543644
118.183317911821,24.514489168449323,(control),0,6,5,1,1,371.7020490994857,645.1152016604141,89.8846130799573
118.18829526986457,24.482741787940476,(control),0,8,10,1,0,464.7447401982127,410.51150492444583,528.8446962648403
118.10854418756546,24.47526983869677,(control),0,24,57,7,2,355.403988937019,223.5807378936165,203.87331619095198
118.13911071068746,24.51684215117478,(control),0,5,17,0,0,462.15520500056704,1304.0448338632343,555.916853550976
118.15860913332406,24.543051242938773,(control),0,0,11,1,0,729.2499294686879,960.12164076786,672.3333808298748
118.16204287983066,24.528790704747568,(control),0,6,17,0,0,448.55537979689814,922.9746492392532,533.1287465327085
118.11267542236035,24.47278522410837,(control),0,21,45,7,1,131.3098200968311,298.4855347654043,241.74692022113928
118.10065316370127,24.490306126399382,(control),0,15,16,1,2,228.27558754234192,459.12716543503046,226.5500371583798
118.10418879905455,24.48078615076016,(control),0,4,26,1,1,744.997237653978,754.0988834428834,283.8542743330062
118.17808715667363,24.468176310825278,(control),0,0,6,0,0,1140.6913483860633,1223.6201740217377,1677.7469486672849
118.17505385853288,24.49391493704977,(control),0,4,1,1,0,65.30807456336076,818.7541609008462,898.3539885984429
118.09767788511478,24.54054219828577,(control),0,4,0,0,0,1383.6090409183253,1867.9392722027194,1377.725657072022
118.15132219104305,24.518251945762852,(control),0,11,16,0,0,578.7681105898321,553.5944811404656,738.2949595897767
118.11531445947544,24.432179894336063,(control),0,5,5,0,1,620.2473589909613,96.03082994021699,3999.156362658317
118.18777242790418,24.504337816056232,(control),0,6,10,0,2,686.2134114220224,1074.6290179814268,179.9633619954878
118.11487276593279,24.54483000996294,(control),0,5,6,0,0,860.3664802196479,935.3165444702692,531.2020098067171
118.1126488364504,24.55119044551217,(control),0,0,10,0,0,555.9387937039363,575.7299191165192,1140.3184088374344
118.13785456331243,24.538196329880467,(control),0,10,1,0,0,136.1273962578253,1027.0503295129886,1753.0514780216838
118.08990876066208,24.473059612102418,(control),0,11,57,2,0,341.0220605675075,506.24115668997973,850.769719782627
118.15309574272648,24.527536711332225,(control),0,61,21,0,1,102.44643803154108,846.4924440441688,215.23467016184773
118.0869096579921,24.5176678951516,(control),0,23,3,0,0,167.35581252367962,741.962982484194,1641.6988696004175
118.12417614284007,24.475936341030607,(control),0,7,36,0,0,125.21918814423269,1110.7576053724779,1091.9000528329962
118.11136737850303,24.45117977791479,(control),0,0,0,0,0,1134.701728619056,1811.2246038051135,2113.5349436092038
118.16985502659887,24.475601938036302,(control),0,6,24,0,0,246.05259221160847,1270.2597472229186,1219.0943965402164
118.17335085010863,24.475933068142737,(control),0,6,15,0,0,367.70553331757634,1159.790980604372,1011.1461291236408
118.15488928930084,24.488330136443846,(control),0,7,15,3,1,405.0633825036184,382.65192104714157,298.78233161333264
118.1161489591994,24.54751553910665,(control),0,11,5,0,0,536.2603913386838,611.8338443907212,851.130291834662
118.12051287534119,24.442247303368486,(control),0,4,18,0,1,877.6075408633711,1165.5761495516767,3351.968582213905
118.14992965369575,24.54414152216299,(control),0,6,5,0,0,465.8686002314582,853.8585665064353,1262.140501567654
118.13691263068063,24.478486559316853,(control),0,4,35,0,0,140.4420646268969,1180.0415777216624,1529.1934122668551
118.10496119542569,24.489438377557203,(control),0,5,13,1,1,353.1386385739987,144.9238730044148,206.76081228339314
118.1090006219605,24.436408233035547,(control),0,11,16,0,0,172.84345920976787,200.04174345522415,3280.4470314754813
118.11799698820904,24.47895057314249,(control),0,29,45,4,1,79.91565840724026,620.618443638098,425.37729228198225
118.10233539284323,24.477679225886167,(control),0,11,42,2,1,354.5177395361399,567.7855472411306,208.42051758398213
118.09375925528445,24.487313073762657,(control),0,20,20,1,0,347.8250146711429,373.8113837404285,592.4564296369485
118.11662341471269,24.43618948126486,(control),0,2,26,0,2,638.4427685708519,411.8285697921167,3704.867375825724
118.08497063838873,24.43784842047762,(control),0,8,24,4,1,138.3042710560917,145.76826005613285,1844.3405346049638
118.08439839696877,24.457020725669075,(control),0,15,37,0,1,485.91252352258624,666.0853785196099,52.954219346446706
118.1423859176114,24.495200275167058,(control),0,3,49,0,1,241.31249361329225,1171.7826654109103,275.0199326022871
118.15219860848417,24.52708294476949,(control),0,52,25,0,1,82.58945323909826,925.450979906716,113.7314932394322
118.12953480620696,24.494826251124,(control),0,17,42,2,1,380.6207335941494,738.0703933783955,280.67525142858125
118.11171342514504,24.541487686151708,(control),0,9,8,0,1,1332.8977683516905,1403.9371138610084,64.04778925219998
118.08973189757485,24.465502607726414,(control),0,16,49,3,0,31.144552833370632,736.4746871966008,515.72645316993
118.14676472219905,24.526816685336687,(control),0,10,34,0,1,436.0447876537942,820.1276891920502,474.10858538527714
118.1359179994881,24.501189221916324,(control),0,4,28,1,0,342.570018547461,1460.7853848514421,694.0536265241489
118.11135744304003,24.48325856911932,(control),0,11,47,3,0,351.3892540318455,501.32891184294147,516.2194563143079
118.13660366752897,24.495926857008502,(control),0,4,60,0,1,247.5703670577766,1190.5577561605915,256.74051330950925
118.1410191258524,24.43479531295035,(control),0,0,4,1,0,1796.537204012899,2036.287906609946,5094.946900691905
118.1245824865534,24.516722536235495,(control),0,18,19,2,1,471.9544200547668,1035.113679811439,307.6156173323246
118.18097261143792,24.531505551703887,(control),0,20,11,0,0,93.44716000811955,101.67772772252776,1298.5174622965324
118.11602228954047,24.49852516518776,(control),0,8,42,0,0,315.2158187676402,568.0240369666773,529.2258688367135
118.12736577019272,24.532380931091986,(control),0,11,12,0,0,311.2726159522428,489.06061570544756,1405.0907788413376
118.1542383019991,24.50093898589525,(control),0,2,14,1,0,1195.055407767382,1071.2587191277214,1305.7943190707272
118.09059320952721,24.4367395416254,(control),0,4,5,2,1,341.8498497959446,143.45262552579914,2200.5040155918196
118.12859492085808,24.52792215010541,(control),0,4,26,1,0,240.57511011777774,997.9224132039496,906.1168065009628
118.14724268738507,24.49860817557399,(control),0,7,32,0,0,567.7122851282705,1211.2753197780962,874.2365779535673
118.17751700523412,24.516886245047246,(control),0,4,17,1,1,593.8030235674065,776.1634057680229,286.8229892646958
118.14439100133804,24.51844269262166,(control),0,6,16,0,1,377.9257606745265,1171.913268783586,360.9119946282006
118.16029499212752,24.475965563313228,(control),0,2,31,0,0,500.0758277256633,557.3077871669468,1327.024782482207
118.17239822306522,24.49651907972207,(control),0,1,10,1,0,376.132788762325,899.2546686671924,1004.9382421025706
118.0968182875276,24.465630764298126,(control),0,10,61,2,1,206.91777245521945,765.7244695792292,236.34340775653672
118.14915794334001,24.474246220165835,(control),0,0,11,0,0,764.9746037318549,733.4116352648172,1643.6317168528567
118.13838925111232,24.439446733288197,(control),0,0,12,0,0,1807.917722103291,2066.436748474558,4526.335405588392
118.11965756661016,24.52448459770473,(control),0,4,10,0,0,822.7340083399287,1484.6463581160792,839.4125021295002
118.06828889329488,24.44404510821384,(control),0,0,11,1,0,429.2089758917615,376.0539221686091,1322.0737011902265
118.18628647876571,24.476588297382627,(control),0,18,5,6,0,99.2319831808441,28.932306024193576,903.4465397050803
118.15646351340233,24.48966817710421,(control),0,2,13,0,1,582.260229831675,564.0934787611701,180.76243743746346
118.1279989468862,24.427157690811054,(control),0,0,0,0,0,781.9570292387914,570.3675683992633,5181.443553782143
118.10810518164335,24.517189380102486,(control),0,30,37,0,0,72.6076591221596,766.8917839354596,438.11571514683163
118.13093890201748,24.556227774151342,(control),0,0,1,0,0,1065.128963053411,1359.053488647408,2572.575268226582
118.12275765295468,24.50618620690457,(control),0,16,33,10,0,281.7295011402501,209.98267370535638,425.3094596318616
118.16448728130263,24.50544191964107,(control),0,2,9,0,0,485.45199542397734,798.0874714246104,1938.9515093765976
118.14391760666109,24.492544099065555,(control),0,2,26,0,1,569.672206173231,870.0380493789226,277.6353309906342
118.19155337770245,24.474118707764507,(control),0,0,0,0,0,565.1720422299472,592.3343679145568,1457.9568861936623
118.16372025246454,24.48080018210069,(control),0,10,30,0,0,440.0005229164971,921.2906274207643,873.6919678046783
118.13244362880769,24.500770713355813,(control),0,5,26,2,0,467.7356913858987,1138.6684724084967,593.863468933115
118.16515359955163,24.536536447208665,(control),0,0,10,0,1,512.4926556749307,974.7444460781171,200.96312119613148
118.09898964073123,24.513739297774887,(control),0,30,19,0,0,208.40705123483804,262.1731411907807,463.1249278046483
118.08824122398933,24.488084766263242,(control),0,7,16,1,0,289.40531470252625,302.2332895060504,541.7240487454394
118.17672133145716,24.483101636814354,(control),0,21,20,0,1,275.42377055189127,493.9905411078261,258.36405560771266
118.1066916652922,24.49923233165688,(control),0,6,19,1,0,313.49582707775187,564.6552876725418,1072.885017612224
118.10685120826243,24.483299080167278,(control),0,5,23,0,0,701.0359456994474,841.0335264221383,471.5156125389606
118.17363218580907,24.50750039907687,(control),0,20,19,2,0,88.59047855839158,180.59684869695243,1332.6858242510784
118.08954172392319,24.468190114921565,(control),0,19,72,5,0,268.71785910502376,508.35180671204284,716.7517791054878
118.13286267195197,24.522942357850503,(control),0,4,25,1,1,689.5741794424039,877.7448386080953,244.61559992554342
118.16075265401363,24.48453681956951,(control),0,2,33,0,1,823.7022566603887,927.0019120455588,402.59368930473596
118.15594553907304,24.484912186754286,(control),0,6,20,0,1,606.1662610458302,614.1279693775872,407.2005878777231
118.17184863855455,24.5099605933196,(control),0,7,21,3,0,282.34326254065996,325.448496574699,1183.3020264149236
118.17015465434127,24.47842777672598,(control),0,21,22,0,0,74.06176946567948,956.7768157958492,907.4207282345742
118.15220816254232,24.472599033871187,(control),0,0,12,0,0,676.3716965268776,659.0198856536294,1814.911333081575
118.1314547510886,24.50737090334345,(control),0,11,27,0,0,575.9374096540292,1016.5781629444639,1092.6637047117329
118.07497589737348,24.44978744447388,(control),0,8,13,0,1,233.59678458709868,628.1978416209096,402.6035913608904
118.08873365713606,24.51594620803193,(control),0,35,10,0,0,167.41714672463004,480.1524591203289,1385.6686115107707
118.17780765089016,24.47256691522682,(control),0,2,8,1,0,908.2591145056551,904.9141563858982,1196.4165025793384
118.10871695908743,24.470248212846016,(control),0,25,27,7,1,73.1178375553259,53.06594485597057,101.09617459793375
118.11818551137189,24.438147066005087,(control),0,4,29,0,1,702.0392791775272,657.943037559023,3634.550164794345
118.15252478996874,24.51914692437849,(control),0,9,14,1,0,478.1702044355247,486.4992507972019,653.0470189231677
118.1185226454653,24.488651855427207,(control),0,27,41,2,1,42.68354697817084,445.49880543175664,191.06624275522228
118.14507849698731,24.503802517557677,(control),0,2,32,0,0,569.047972881522,1497.1865690410746,1262.9384868001603
118.13888415455241,24.519030931450526,(control),0,5,15,0,1,515.8127307480331,1061.5085176033372,399.19665575184956
118.13205140176834,24.51191183768449,(control),0,20,22,1,0,575.4366074463245,1316.3155181564719,925.816339805228
118.17358194375448,24.46583954058082,(control),0,0,14,0,0,934.2585354294492,1730.3538959069826,2016.234636027173
118.11130544038711,24.48977738314518,(control),0,19,32,0,1,546.2616262222127,593.3699323435343,144.66364159176314
118.1373040911128,24.490878353777926,(control),0,5,26,0,1,649.8759509015592,854.933279688277,311.0716233995535
118.1331430680429,24.52629180947387,(control),0,2,29,1,0,683.319598426483,638.6387689551187,616.167782944286
118.17582083609452,24.46449858793179,(control),0,0,14,0,0,1194.789923210547,1682.5071608082173,2109.819474004406
118.1394390724294,24.51300958145049,(control),0,12,20,0,0,613.3348342858673,1612.327335335858,927.6241979438339
118.10706310572375,24.53378803271189,(control),0,1,15,0,0,834.916093785692,1007.1251572368047,737.3399340724443
118.12617077839575,24.528685692767066,(control),0,7,17,0,0,134.50582724608543,876.6325082212326,1111.6274480955483
118.09287284888065,24.520448988558197,(control),0,27,25,0,0,341.1866181510253,767.0880964874159,1365.2554732713745
118.15463235223615,24.518319358111015,(control),0,8,17,2,0,255.08613675447964,296.97765027989055,809.3028434370888
118.1648334902357,24.527001813458455,(control),0,0,12,0,1,781.9185936375158,1135.7192204528415,231.67990963845597
118.193080087073,24.49771407865574,(control),0,4,7,0,0,287.79605319511893,1832.4219808329428,440.6744138143524
118.15138306286599,24.453074939070937,(control),0,0,4,0,0,1063.604158585051,2773.9718941269857,3939.7835062189115
118.16022899014088,24.506653792959913,(control),0,0,4,0,0,708.2435261216975,866.2803337060199,1983.6531683154546
118.15119293659241,24.48006650357585,(control),0,7,20,4,0,224.550057572032,473.6710956347324,1019.230230656205
118.10245062205567,24.478825401024757,(control),0,7,34,1,1,478.29901513034525,649.9561726747942,284.9512674243106
118.1507904948724,24.545633622981157,(control),0,1,3,0,0,593.370260905325,901.0932459651898,1316.2782692833227
118.12042852292103,24.476249116139027,(control),0,11,43,0,0,189.61517490104083,735.1180856417407,720.5808492385294
118.09929712250877,24.476731666886135,(control),0,10,32,0,0,287.72821146302977,490.6513282779863,455.37241993934464
118.15293432575668,24.490097490403013,(control),0,5,11,3,1,280.9366131183636,274.6625449339671,394.2386860440952
118.12775539974123,24.500710729334426,(control),0,11,30,4,0,135.64727261811794,719.1032377453976,572.4502729886032
118.12245416819479,24.47537671442293,(control),0,6,38,0,0,147.44895268398247,934.8549689592713,947.1176497787949
118.10294045137883,24.470628878449773,(control),0,24,56,3,1,76.75230730352702,501.6821371266132,400.7853560275848
118.12327274273984,24.502894296367792,(control),0,13,37,12,1,133.86229057046992,217.72289615107908,127.90778676314274
118.10148177464635,24.52284984572468,(control),0,7,20,2,0,315.58010702495943,401.75322227449914,1001.7127289862104
118.13346966551805,24.529524442189402,(control),0,1,24,1,0,590.6255323706438,560.4515993925735,975.4262374485947
118.12227616021916,24.518507966588153,(control),0,23,14,2,1,491.38451624530444,1090.5428898867335,170.2326090868404
118.08834019915984,24.517943520892324,(control),0,26,8,0,0,307.7817403808216,656.8359469528516,1538.0266853846517
118.12746400378255,24.487644163663305,(control),0,12,28,2,0,607.8998815232171,263.3420561000185,591.5636942674582
118.11704131117473,24.500500156600413,(control),0,3,34,4,1,363.88724341292186,355.9955729499835,365.05711948411164
118.15947967048284,24.52564529378915,(control),0,9,22,0,0,495.93540525180174,726.3271912383292,773.4785335462507
118.15627125613864,24.522837563390567,(control),0,2,20,1,0,511.7379752770417,396.12254448080216,519.8066979602329
118.14943501020834,24.533517356135935,(control),0,37,9,1,0,149.32881539286586,652.3917125206307,819.077895371716
118.15258024619757,24.54559713859896,(control),0,1,5,0,0,578.8482779834067,1081.5847667095425,1194.647189051833
118.18592393772371,24.483384339115105,(control),0,5,15,1,0,532.4368718140902,494.0055405617576,469.40185963831954
118.13144783216576,24.484793602949598,(control),0,19,26,0,0,344.46964249040866,290.6042340783871,1073.885227105197
118.11991540417803,24.52358178773076,(control),0,10,10,0,0,751.3488141836497,1547.4392528648855,736.1080998269235
118.12537573192618,24.48955822004754,(control),0,19,41,3,1,330.75472877244755,376.3757907550757,292.30736660823186
118.1499348448024,24.487689710168105,(control),0,5,11,3,1,123.64504504459993,135.16186031033473,171.7166992064866
118.18175728887202,24.505114975734404,(control),0,2,16,0,0,538.715484465326,604.7512496138752,731.7461695367713
118.13400796775943,24.48731579353049,(control),0,21,27,0,0,215.95110647112264,409.32494779028696,796.0053441325882
118.16685235308108,24.496146673466463,(control),0,3,27,1,0,749.0936587248063,369.96408967512696,928.1524890590152
118.12663285465806,24.55737091144882,(control),0,5,2,0,0,769.5601573469163,1006.8113239646475,2359.1381223682183
118.07521220060346,24.485565173496465,(control),0,10,22,0,1,358.57104074267477,516.7530649854456,313.3437763497852
118.13515276068321,24.49360479281866,(control),0,5,30,0,1,505.12166046741316,895.5971481795219,191.57701592469078
118.08739253606095,24.523229374452225,(control),0,16,4,0,0,740.0098546597828,1200.1169667780737,1999.5841514714111
118.13190769154656,24.486869537924385,(control),0,21,23,0,0,326.90472015725095,196.39679729845028,840.1539172919975
118.1211056683903,24.438461339733212,(control),0,4,16,0,1,965.9272299966976,827.4131016764783,3769.077283214545
118.08318483182036,24.45140179603793,(control),0,6,39,0,0,609.4549530766808,668.4504012340246,476.84347456762185
118.07372401468565,24.457680810067874,(control),0,16,46,13,0,262.87795994133654,335.9902280020686,610.1634718456075
118.12070599557272,24.466386824219803,(control),0,0,11,0,0,921.0884781576175,1255.9706129615622,1166.0217042932143
118.07282748683119,24.459900345796825,(control),0,18,41,6,0,357.75367068905865,298.2960089200238,854.6218328056583
118.1337695133542,24.495196186247956,(control),0,7,40,0,1,393.78394394107653,980.690221213003,47.57239061290705
118.18458053071144,24.473582509117985,(control),0,12,3,5,0,467.14137846052154,347.46140697428285,1131.4110429049485
118.18249768247674,24.479174401800368,(control),0,14,15,2,0,180.64868356958596,256.7457036518023,477.84689049646084
118.16843031433582,24.494024843795415,(control),0,3,25,1,0,525.5016117765493,557.5708948805299,669.9426887908344
118.15001974257369,24.491325364897815,(control),0,8,7,3,1,337.80345248192407,357.1420678126803,166.61332295917705
118.13746698638361,24.481959326050116,(control),0,13,37,0,0,451.1065822220357,945.1432845280945,1145.460656321945
118.09555105620115,24.492980520345714,(control),0,9,23,0,1,421.07749092058333,619.5454481323369,219.44501500953754
118.1472725187585,24.504722935983228,(control),0,2,24,0,0,795.6640644279082,1269.6705898881394,1440.0183998880866
118.12918313212349,24.556985468674867,(control),0,2,1,0,0,946.0297122364912,1219.277821427868,2500.5950251297163
118.18782515610815,24.508213357919466,(control),0,6,6,0,1,711.6151474860358,897.5042395442101,80.13532770329664
118.10563230194367,24.434719497554678,(control),0,5,8,0,1,488.0447836118769,446.5731877759953,3300.9380244922268
118.11218679104302,24.51548247661758,(control),0,40,33,1,1,202.63026785322407,917.1557949858566,106.48202266852068
118.16581319728681,24.528734201319786,(control),0,0,9,0,1,824.3473235401243,1222.820159545308,209.98362504715666
118.1165208551315,24.484807046828532,(control),0,22,48,5,1,85.17385937735388,65.24037420688781,20.878839813738253
118.12466282320355,24.42676049855973,(control),0,0,0,0,0,454.88489930692737,256.8834992944911,5029.21602792815
118.14199873584955,24.48261390236418,(control),0,2,24,0,0,799.785032302748,1115.471298231346,958.8763066106148
118.11815583764438,24.5558731892351,(control),0,8,7,0,0,425.5224719990261,345.5588819753486,1775.3713414623417
118.13298090089317,24.508304712671684,(control),0,15,25,1,0,700.5215076408317,1197.1173152293989,1278.6011233093127
118.15177901469178,24.522283783533403,(control),0,6,11,0,1,290.40229348373424,646.2580351247341,297.5674570034143
118.14371300625874,24.446191814574895,(control),0,0,4,0,0,1209.1193224532933,2964.0327932932983,4367.857528168138
118.10186723284536,24.515714781472695,(control),0,16,23,0,1,338.10164465280485,226.6847599794971,316.67880180013987
118.09376187378567,24.489347664825402,(control),0,19,27,1,0,289.21073960439696,294.4509764514383,518.9308398655382
118.13573710163924,24.49535615365701,(control),0,5,52,0,1,304.8494768557989,1089.4742578426246,154.98927043644133
118.11491357680467,24.494399345323764,(control),0,18,38,0,0,242.48790325701296,679.1833796443236,702.5642081506817
118.17528637954638,24.47447221564202,(control),0,2,10,1,0,621.2279109421604,1015.9857620087861,1056.1980749252145
118.07020779437488,24.446047039570438,(control),0,0,9,1,0,347.71011160736424,382.1403638669644,1027.1949371397166
118.09110502493095,24.5347375908155,(control),0,2,1,0,0,1079.8839254865832,1753.7045491512642,2136.4896023086962
118.13903329731276,24.539795757508816,(control),0,5,0,0,0,220.04849505908783,817.571037614842,1905.8943959639878
118.06037607496764,24.44262408561233,(control),0,0,1,0,0,915.1535353228433,801.1422069612925,2037.0534411133692
118.17692081749043,24.494084919422573,(control),0,2,0,0,0,183.32140678353946,943.0451106447508,1046.2088996717453
118.12540203564892,24.495752190931846,(control),0,29,41,4,1,34.15333700650274,381.3836070693889,281.2128099345712
118.11042672744456,24.512228750172056,(control),0,13,39,0,1,542.537935405789,857.1932928006495,325.2230202855956
118.09406952261125,24.442059652365,(control),0,0,8,0,0,410.4071685614883,675.954706061018,1958.2194509788592
118.09739709236769,24.464568357059836,(control),0,11,67,2,1,187.14964901823018,875.8686004969113,194.66837600374356
118.19249698252929,24.50687867429535,(control),0,5,1,0,1,936.6033002252628,1392.5419459016553,345.1461217490586
118.05995843447221,24.44778149839287,(control),0,0,9,0,0,752.9310674368546,678.6702296033088,1822.8066470468339
118.1125749650379,24.502150466386176,(control),0,3,15,0,0,651.4883708587968,768.0499541529119,817.9784529956047
118.18534993929987,24.502514746742687,(control),0,3,17,1,1,670.0175824795684,1041.4542167233735,289.9700869026992
118.08453744332236,24.451953451223883,(control),0,5,28,0,0,710.0119530157443,747.0428819891034,575.8561060707611
118.14325468641252,24.48260936280429,(control),0,4,15,0,0,916.4528887022368,1012.8892496497001,884.7735640466105
118.11568962167952,24.438279371371646,(control),0,3,38,0,1,478.8435885041246,643.0743788226798,3463.244038012136
118.0982306470605,24.43530464964303,(control),0,0,7,0,0,93.15893872787242,917.9906718590544,2802.8632766669352
118.1124101229734,24.552070546616125,(control),0,0,12,0,0,572.2720496247719,578.2338485737961,1236.169389732111
118.15795625467464,24.472920679831354,(control),0,1,23,0,0,580.3980757379893,615.603132462115,1665.6046297022654
118.11946152251564,24.51612342360902,(control),0,26,28,2,1,481.6926808848006,758.1727174687396,107.34926987340769
118.13645247774409,24.47770482621725,(control),0,4,28,0,0,112.2543282936234,1225.0627933089881,1625.4662832528022
118.17274135158883,24.474010502781322,(control),0,2,13,1,0,483.4069080027268,1275.4053944247376,1221.6466997746156
118.17213648659667,24.50468480639975,(control),0,11,12,1,0,152.6522681369053,193.64514078295903,1637.274920560026
118.18330088498966,24.473415714799327,(control),0,10,5,3,0,539.6011968199318,438.83289856058684,1118.371641845584
118.15109458837854,24.502354274305812,(control),0,3,20,1,0,1092.8116634651037,1292.1643765585168,1349.1125671402492
118.15333439703555,24.509835204897808,(control),0,4,17,2,0,322.3919725823047,445.1432297083417,1674.8854999096618
118.12370276996991,24.546620776080527,(control),0,3,4,1,0,691.0342410619969,887.0157768785355,1343.625121629197
118.16719257488366,24.497548598016255,(control),0,3,24,0,0,783.3348272096159,445.3515136357408,1073.3326137341
118.09472484498494,24.520947176004103,(control),0,18,24,0,0,159.31695272745975,848.0534906476194,1243.70401738158
118.10903470912913,24.434693219484025,(control),0,12,11,0,0,161.45038017833926,103.18214898813181,3453.562480322147
118.15513503344798,24.523852512772795,(control),0,12,17,0,1,500.7015120357344,541.3200395332393,365.4356117437461
118.11176309685484,24.538217887356492,(control),0,4,6,0,1,1266.3776388901615,1446.8019743922243,147.35666526014907
118.08986478953743,24.43803028355751,(control),0,5,17,2,1,328.9505418130758,59.467545668728036,2040.1462262400412
118.16000278302124,24.473564532975058,(control),0,2,28,0,0,632.7914619025596,681.3889396546475,1590.6033198423838
118.17035298842019,24.460814306447734,(control),0,0,7,0,0,1106.4787596693086,2354.45931927019,2647.5392253487025
118.08327318755443,24.503368416792544,(control),0,5,8,0,0,1305.6311698890224,855.8210187497057,1864.3469081790008
118.13809720605352,24.483452346096776,(control),0,16,34,0,0,406.62336770731616,913.9490473341868,968.3792742697226
118.10964349738376,24.482393429821155,(control),0,8,41,2,0,404.5252561166612,694.5794643148574,493.3746488449968
118.13736230552878,24.498305725852646,(control),0,8,56,0,0,138.26366492252583,1453.9572277632972,474.9380775721057
118.076476098471,24.466175037021735,(control),0,27,75,2,0,229.39207244332493,442.84332366654917,1124.1109262801058
118.11710098652001,24.494138058530016,(control),0,14,41,0,0,406.1422409262105,533.6548048757751,489.8566262458696
118.18707678514816,24.50078159797153,(control),0,10,18,1,1,414.1765923951065,1300.1899333855959,93.35852430653969
118.10852658323361,24.43996483403155,(control),0,1,14,0,0,341.94461245972616,584.5883145844715,2908.3218931437996
118.14469869252827,24.52779735609666,(control),0,8,43,0,0,564.326500448123,593.2075371274267,637.5256234715932
118.1580884261325,24.483901002185892,(control),0,5,26,0,1,645.0238926917549,727.9819280278424,460.3228388737659
118.1920826135726,24.492836159133283,(control),0,21,3,0,0,105.1914057533796,1399.5916387961859,469.64066531691583
118.11264053434506,24.507429500136595,(control),0,7,31,0,0,589.4216055383854,610.6744593044742,483.99633072293403
118.11849181043364,24.520420979341353,(control),0,26,5,0,1,422.0556613030578,1224.8334832677135,481.704254679118
118.18185946328565,24.530926770477237,(control),0,22,12,2,0,71.1130335874022,195.15196904281905,1261.943962927875
118.16732479212375,24.530540695861337,(control),0,0,5,0,1,828.4186623735703,1266.2432944634995,365.02357595878203
118.1131065540484,24.515410467083296,(control),0,34,36,1,1,113.3320854757464,850.8515188127675,14.365217893298757
118.18724720971214,24.532215800093848,(control),0,13,1,2,0,51.410099260909995,64.43208115525485,1639.9898517460651
118.1006686275137,24.47707680197049,(control),0,8,41,1,0,266.53125687363433,577.5667781831881,333.98369751690683
118.14102408516071,24.47851522121174,(control),0,3,29,0,0,555.9343169711204,1439.339139283875,1389.5986002931247
118.16219850791767,24.46393221449248,(control),0,0,8,0,0,295.0651046668707,1699.1392875326767,2622.365793758558
118.13780038153922,24.435059165578274,(control),0,0,12,1,0,1947.3408054679287,1751.6580579275633,4875.654898437464
118.14019301407411,24.518676427732085,(control),0,5,12,0,1,616.491498653355,1108.385805023426,327.027484105046
118.16634466043529,24.478278223839776,(control),0,14,27,0,0,369.58044271203863,1109.879083356122,981.5293143117501
118.1080279157314,24.478009951854894,(control),0,16,54,2,1,516.280974098349,431.9137718689843,52.031588234984355
118.0938753537328,24.507896714634327,(control),0,21,43,0,0,537.5085311290612,635.1742002473206,705.6796335271608
118.18576269708733,24.510838628373662,(control),0,8,9,1,2,411.3390062773972,670.9518447613883,363.9623967746385
118.13619924410403,24.530695722347883,(control),0,11,15,1,0,368.61785051286137,358.53570722594736,1039.1704133755557
118.13529936618043,24.518685219983773,(control),0,10,22,0,1,245.50427963239116,1159.0941076003396,248.60687089823858
118.18105272207528,24.514431150108305,(control),0,10,6,1,1,337.6873459874384,520.5088959930123,285.0638936871812
118.13535995490197,24.444248403687862,(control),0,0,0,0,0,2036.0237944150922,2240.321434755282,3919.967079406481
118.09766590978941,24.490935143392523,(control),0,22,24,0,1,109.25833765053959,710.7566554764569,93.06101745149219
118.18246071475431,24.496975036669767,(control),0,12,9,0,0,399.80400095003296,1270.682178770107,550.8196926153623
118.08043854830801,24.452949508569073,(control),0,7,50,4,1,283.29541420303246,347.90627597461315,149.96068455287408
118.07872034792648,24.4466312115841,(control),0,6,29,0,1,611.4754102029864,957.6539434631762,712.9049698490379
118.08586623769436,24.46914764339363,(control),0,26,83,6,0,209.76284394436578,198.5839005649292,1064.2984417252535
118.15858222376485,24.512092418001323,(control),0,4,7,2,0,282.60854532170896,324.5177618799982,1605.2555387220505
118.14608550762405,24.52454724230695,(control),0,10,33,0,0,421.28782709163653,855.110017555552,449.4285664369644
118.17758071784993,24.537955019421922,(control),0,2,2,0,0,815.0300123509828,696.14848522178,1466.658903015969
118.10860091558068,24.536081358181164,(control),0,1,7,0,0,1035.8502150065544,1293.9301250923845,510.70276955494336
118.10882804663238,24.49564831901656,(control),0,24,27,2,0,140.16206413514658,159.125229395428,754.7899949707718
118.07793422795724,24.45738916642934,(control),0,15,68,14,1,175.42850949949275,236.32670062936822,389.1639921600292
118.08173503666566,24.479195234339016,(control),0,14,29,1,1,99.20106017675103,253.684025836755,285.9470456453591
118.15203633847126,24.478996011041698,(control),0,6,19,5,0,174.8282840672899,344.52602144488327,1153.9199313639594
118.17442980676866,24.504936823817122,(control),0,14,12,1,0,126.2414063921474,272.56613010185345,1420.1168896894537
118.07845765776106,24.467935712425003,(control),0,26,64,0,0,236.00729758102895,443.90261215793834,1146.7091217869158
118.15926263245302,24.49634770904925,(control),0,3,5,3,0,1223.8027598515328,404.8001719915352,839.2225311477166
118.18619738452735,24.52221426317542,(control),0,0,2,0,0,989.4039498971628,1057.217847333494,756.0004113486182
118.08322711240227,24.4819517708408,(control),0,12,18,0,1,279.53544416872097,590.6606566344916,418.00518001783536
118.11942619122988,24.477096445459054,(control),0,17,42,4,0,321.6506117053911,654.4256295985789,593.7740693543
118.18732150806285,24.480194813191027,(control),0,13,6,6,0,175.4548276615501,118.19738587458286,703.6588353982785
118.1547111578067,24.52933261606851,(control),0,78,19,0,0,135.3275651951052,613.3227205980718,469.8752967285961
118.10975826729658,24.51541861628495,(control),0,34,36,1,1,306.9106986420639,850.892933863782,352.53623678758015
118.14209984561786,24.50331613394179,(control),0,4,27,0,0,276.1987503369443,1759.1012928633495,1146.990504602214
118.13211977850781,24.523659628777146,(control),0,4,27,1,1,658.0494753583191,880.2489426943183,332.7678511113217
118.17454935197274,24.482336070656554,(control),0,20,25,0,0,147.7867492287903,574.7106710386183,489.15972656258384
118.16421830264741,24.481737350839836,(control),0,12,30,0,0,390.85784859089415,940.6816048282215,758.5242427692708
118.1119220333957,24.436214573574077,(control),0,12,20,0,0,176.67674089162972,242.5369789009722,3439.23672367216
118.0928271265808,24.463132862188115,(control),0,13,39,1,1,303.15720092034866,1137.1012916963803,146.4246574194036
118.17400994433397,24.479698427515114,(control),0,16,23,0,0,279.7693689326312,828.0746595935237,664.3945149364364
118.12604055061877,24.473936780981433,(control),0,4,25,0,0,223.74226126065818,1308.8433411533417,1343.9675581349388
118.11220632994541,24.49796001860335,(control),0,11,36,1,0,246.77512447136195,570.7369701226152,908.7746151646958
118.1491412135787,24.512565980488997,(control),0,10,20,1,0,499.4190478946751,663.1222407580934,1170.2076222166006
118.17362013011224,24.470580120011732,(control),0,0,8,1,0,620.7686316935277,1374.7984969089694,1519.0623339801039
118.14698802527361,24.507285816882227,(control),0,3,25,0,0,846.8141865374521,1098.1679950609127,1594.8960287427133
118.17945061754524,24.491967239917628,(control),0,5,0,0,0,335.78867609303074,716.5668466133185,895.6451970182061
118.15956889515967,24.544293443324158,(control),0,0,8,1,0,877.9822139897099,1121.9071672485607,798.99948006429
118.09629547085468,24.48604259949716,(control),0,20,10,0,1,414.220113908191,664.6038167839631,422.7392559071709
118.1277637936408,24.51770717904594,(control),0,15,14,0,0,340.39204142156217,1332.7814159752043,587.5463654445778
118.17802430061582,24.490393131182362,(control),0,7,0,0,0,275.2388113901699,597.8230068944266,742.3706828881652
118.09472681280887,24.434493490944817,(control),0,0,3,0,0,313.4093453553033,628.9435296230789,2642.257632118286
118.08511867827994,24.51591653759039,(control),0,16,1,0,0,104.39672635267075,631.1961751575515,1713.5903420433388
118.13925835762741,24.489038930581057,(control),0,7,18,0,1,601.7729331217324,965.8293479075033,354.4521134958147
118.14150674688085,24.48125422269178,(control),0,3,24,0,0,687.913734320185,1244.926092857547,1108.6973012760711
118.08500583315293,24.512625901222926,(control),0,19,4,1,0,364.4618464740954,301.68349377062617,1617.4322784973301
118.1480733113557,24.44713835454405,(control),0,0,4,0,0,814.1326835712557,3365.399856756121,4646.939295448153
118.13958128915463,24.530222403942275,(control),0,10,32,0,0,150.6805162746191,190.32018347039522,853.5045278959207
118.15956040897153,24.45018599985025,(control),0,0,4,0,0,781.5345150190498,3098.212731417439,4161.128478927357
118.14611477497262,24.526007643375134,(control),0,9,34,0,0,450.4502318262538,784.8083621041683,529.0120493730897
118.10834916247752,24.526978231683145,(control),0,11,11,1,1,199.37274407953572,431.25520267107527,203.3014148968727
118.14330924523172,24.545739281666176,(control),0,0,0,0,0,160.5413259576198,170.7882597966092,1910.3412344236324
118.09577412575226,24.51584155142717,(control),0,35,29,0,0,77.74299204548791,406.3024551494164,828.6845750560354
118.12181208047217,24.42763432529924,(control),0,0,0,0,0,152.49041739914915,66.32696121399097,4781.109808902625
118.10791935262118,24.430992066291136,(control),0,6,3,0,1,556.0583559444902,479.91952934289014,3766.849642115679
118.10116307368506,24.53164181032446,(control),0,5,26,0,0,453.71333756877794,823.691056186188,1071.5060047749325
118.13279774287811,24.434660973026965,(control),0,0,4,1,0,1477.1927251353588,1294.47715301377,4637.925284868644
118.18010511379485,24.482887523649616,(control),0,7,16,0,1,142.5365460770697,308.29894334596395,96.24325840324461
118.09182370270337,24.434633680490407,(control),0,2,2,0,0,447.88318781972106,401.8426140845857,2464.4962977679625
118.07936206411861,24.49987570042763,(control),0,8,18,0,0,863.3082770850613,1145.4388491068396,1449.7051615864834
118.18809663598617,24.49276336093878,(control),0,37,9,0,1,256.3714711490675,1087.0534572966994,244.57434747251204
118.12112020127363,24.492919062975382,(control),0,29,41,2,1,220.53075057763095,154.0614528133508,104.72415427893029
118.17487850240775,24.463276564075265,(control),0,0,15,0,0,1240.3849317473826,1847.8451145398612,2260.2162863701847
118.10623569881417,24.51902071170378,(control),0,18,25,0,0,244.1446227917173,674.5306599978954,526.6357731634781
118.13797920302356,24.49353312265226,(control),0,6,45,0,1,543.1136896721301,1083.0472521236838,236.41395252504068
118.16208232851659,24.47675554314877,(control),0,2,35,0,0,649.5088365176802,707.6334740044581,1267.796761474786
118.1730105942697,24.503778958094525,(control),0,12,8,1,0,179.23503198362076,302.29797694381665,1529.708997521933
118.17231457797995,24.487019165877008,(control),0,23,11,2,1,61.01279081413221,44.30569740233651,241.66492854320745
118.18567397178789,24.49045005676523,(control),0,17,14,0,1,40.00243840717683,732.2536739592314,281.90618189367024
118.11495010476494,24.47529129044436,(control),0,36,56,4,1,165.0950308393723,174.9962953138845,387.8080306032054
118.19093956838348,24.521141548059017,(control),0,0,0,0,0,1258.8180845139493,1243.7049465570058,934.3517389647923
118.1105283580261,24.440080272367933,(control),0,2,23,0,0,149.31068907144018,579.2116955903451,2999.8225356854387
118.12465006931485,24.50437703224037,(control),0,16,35,11,1,253.14574202652227,274.02583335422713,342.0868863073829
118.18341326289813,24.501763768921172,(control),0,1,19,0,1,676.2056760902744,1011.9967339827657,453.2763517619108
118.11689283106021,24.468988575837777,(control),0,0,21,0,0,724.6704127437748,804.3493596143308,691.1349598966375
118.19236109834563,24.491445095312788,(control),0,25,4,1,0,51.51166317812922,1342.2240023252705,549.7874320933381
118.08499563330919,24.50510613683073,(control),0,7,9,0,0,1045.9602203403333,613.9080650585371,1645.0355284380844
118.15763819737354,24.464049982197785,(control),0,0,9,0,0,252.44553743518145,1551.0347073385262,2647.7671104702076
118.07883146617718,24.46086391382986,(control),0,15,64,6,0,369.72523401068696,480.8691759226443,606.7689904511839
118.10294124968443,24.49170799144688,(control),0,6,18,1,1,325.92552205347755,249.31603936394035,425.14459947856557
118.14781337611018,24.5190789960765,(control),0,9,16,0,0,523.4559923800539,891.0430935077732,608.7639420312049
118.17484814444087,24.475499314819952,(control),0,3,12,0,0,522.433626972344,1022.3596109882155,971.6824224149099
118.13249589396716,24.498044125585714,(control),0,10,34,1,1,356.8536956673082,1133.4042924221235,292.1284154284333
118.13117795151393,24.431069190356016,(control),0,0,1,0,0,1159.9299381977303,956.6137024928942,4911.789386819726
118.09822681484674,24.534182253441987,(control),0,4,11,0,0,677.2259230646035,1215.3354246713566,1461.474701383809
118.11202181415334,24.431037108638932,(control),0,10,3,0,1,519.8911064039896,453.03656644022806,3949.3393440192485
118.16594561220018,24.47026103020358,(control),0,0,23,1,0,308.65573150305306,1376.8634992973005,1848.9185049427706
118.1687961642883,24.499698440511462,(control),0,6,16,0,0,495.55825186760507,709.0686083891517,1295.9779911795615
118.0878748186758,24.45482731579615,(control),0,6,14,0,1,712.7824029978898,990.5195287251263,443.2007984587729
118.15471249024425,24.475915038831726,(control),0,6,21,5,0,231.12709069132552,223.18012996073156,1392.2542113061893
118.10999573021583,24.475323446988014,(control),0,33,58,5,2,269.0875510974331,328.0494164032176,308.1824968804151
118.12171108771103,24.474725995471424,(control),0,6,36,0,0,51.27995049100501,863.0775230558427,909.9508866188731
118.12153875045611,24.517267339119815,(control),0,20,23,2,1,627.589203372994,935.4297788202377,17.772626997312578
118.10602217570023,24.51813368845255,(control),0,19,26,0,1,229.52853055836576,667.5021276649074,426.0655639151577
118.15194839691523,24.456725629549762,(control),0,0,2,0,0,1020.2470531155249,2365.656110572828,3531.6195605262315
118.14712035827574,24.521791188775993,(control),0,12,14,0,0,435.8661979776831,1066.9165388045508,450.51744112984926
118.18116212677552,24.509602846358273,(control),0,19,9,1,0,155.63169219575354,205.0867027976611,672.9771080222595
118.14017201061881,24.432564127661657,(control),0,0,3,1,0,2015.6559785194538,1873.7267169087472,5240.3291671104835
118.09349753378696,24.469817048261227,(control),0,11,64,1,0,170.40653073790904,543.9731007583523,517.0571035329259
118.11588446803141,24.52496940453632,(control),0,7,9,0,0,602.0109563489316,1131.612915676992,524.215291259572
118.15772888414821,24.530782280223153,(control),0,54,20,1,0,104.3671956596899,488.488584441211,508.09591081509933
118.15256435378895,24.481084973428626,(control),0,8,16,3,0,151.25738286557532,444.8776967273566,947.9591834335309
118.08253275348616,24.499242394163343,(control),0,7,25,0,0,1058.2673341908228,1308.6529520396994,1579.4582476526737
118.09741367885334,24.45845292957745,(control),0,0,29,0,0,653.464386242983,1552.0024403969985,571.6401400453557
118.13436107476699,24.490504683120747,(control),0,9,23,0,0,556.6516060811508,586.2689546343344,461.88025769940003
118.09626172224348,24.461265129469478,(control),0,5,48,1,1,322.8406192188282,1252.1554890922062,244.93784930150235
118.18833395279162,24.476704779294593,(control),0,16,4,6,0,137.92260118573137,216.93190408997475,1024.7881535405484
118.09082438826962,24.49365790856941,(control),0,6,19,0,0,299.1128339494023,471.9354848138807,704.2089343784014
118.07241634521193,24.461602964777537,(control),0,24,51,4,0,216.98043207101773,205.10043910244792,1032.2498355096864
118.09659078374038,24.50560453038585,(control),0,9,43,0,0,894.5219307156817,963.0465026412876,531.6282421631909
118.15423324279668,24.483039802315307,(control),0,7,16,1,0,351.5942291630998,580.0479938500453,674.0622385144777
118.15555490688422,24.494937699680516,(control),0,0,5,1,0,866.2362274747483,782.8030464049674,717.9622622166436
118.17395087221257,24.515554226435338,(control),0,1,18,0,0,572.639060024106,677.0963997441812,543.3315810360139
118.16541361006331,24.505761486719624,(control),0,2,14,0,0,415.84537004047326,700.6180420122107,1930.4194625063599
118.12764189629941,24.466410659795123,(control),0,0,0,0,0,1071.9903214918345,1769.6430982834888,1811.1007391518713
118.13686978811826,24.519263653729837,(control),0,5,16,0,1,378.8388377072454,1056.1979746284642,305.6323325964896
118.14211662110321,24.51529635398805,(control),0,8,17,0,0,298.3294236407173,1330.585370854582,631.7561801620008
118.16093304457858,24.47924647478066,(control),0,3,32,0,0,548.4684389136179,599.5872508458297,974.2336795887771
118.13027422282288,24.539132912376658,(control),0,8,1,0,0,401.5703685517805,521.4699430333882,1787.079158720021
118.09554412626235,24.51896397456948,(control),0,19,29,0,0,309.6368572741109,669.2782771846693,1048.5967680721371
118.15396945861022,24.476757832072952,(control),0,6,23,5,0,213.78036716408803,176.58271969447765,1321.8425223493016
118.17770238171786,24.467243394808825,(control),0,0,7,0,0,1153.246958572775,1326.8185055503516,1783.845649453883
118.14951931772602,24.53945971518939,(control),0,13,2,1,0,273.8333257840999,813.5572338704724,1044.3399183886208
118.15929756212691,24.448517072721657,(control),0,0,5,0,0,615.7724319726344,3277.7768138553215,4346.86882270337
118.17846431332704,24.48860627109202,(control),0,9,2,0,0,173.1713599804818,405.1266491753487,539.5411176324043
118.15740657456742,24.49273916251652,(control),0,0,10,1,0,817.7016542354066,681.2915970782622,434.31393258525856
118.1704545513825,24.48111335920682,(control),0,31,26,0,0,245.51362758884366,659.3254242693508,614.0037239965696
118.19100870664752,24.484931916628913,(control),0,20,7,1,1,106.23614097304093,740.0283535544322,406.0160916120879
118.10013470348643,24.461522014712443,(control),0,1,48,0,0,540.8114084966134,1229.6646837133253,514.355083433511
118.09167852757903,24.4898004070439,(control),0,18,26,1,0,115.1142096538707,94.54238704737874,683.8903361012609
118.12690764671709,24.503658899204954,(control),0,13,34,5,0,207.42974597597612,510.09983970777154,495.83164393648167
118.17855864631098,24.527184594222124,(control),0,4,16,0,0,498.76711156888985,622.979200209888,785.1098059002417
118.10525100621427,24.548035572452466,(control),0,2,5,0,0,1370.8029904650598,1399.5981133999449,1013.0486151928656
118.14954239319343,24.448661614316165,(control),0,0,5,0,0,774.5700785871189,3286.0454818019252,4453.879483335332
118.16492569565138,24.474987370030217,(control),0,1,31,0,0,408.55197949945637,1035.5390981164642,1373.20253500055
118.1518475059266,24.516581288045405,(control),0,15,17,2,0,411.80291025572023,397.9855006605186,925.53456101724
118.14637637589757,24.50452272455917,(control),0,2,28,0,0,703.1197981924931,1347.8545768030197,1383.1704624606775
118.0994338950633,24.523600694298953,(control),0,6,22,1,0,410.4718356492581,555.4978690021203,1163.004820444467
118.06807305368976,24.445944073347885,(control),0,0,11,1,0,220.35122313358465,194.06626800053837,1191.518657064811
118.10795676418405,24.52489286155298,(control),0,11,8,1,1,323.1091544356649,328.51733022867904,325.15643291965245
118.14346016653921,24.490971818493772,(control),0,1,16,0,1,722.0468762739812,831.7678838911295,251.9624305748824
118.12416774873223,24.533214394050372,(control),0,15,9,0,0,497.7997026513344,415.37805840072895,1345.4609896853628
118.0819665136997,24.512164130035607,(control),0,2,1,0,0,627.16438956342,521.4234424648217,1913.1626575220698
118.16544113263049,24.501553027785196,(control),0,1,10,0,0,630.0711297494894,672.2951004035904,1543.6949413069124
118.09532364724123,24.46148380667049,(control),0,5,45,1,1,293.44596209909395,1245.5748651622998,179.03482839711563
118.08032753344312,24.461022667343915,(control),0,13,65,2,0,384.14624080921226,622.7446327371769,471.7957549699587
118.07956675394365,24.466247352962174,(control),0,23,77,0,0,165.38729330758727,639.8100000094842,928.6425457584631
118.16468846723062,24.53830373000395,(control),0,0,15,0,1,582.3682850021521,988.0080881455169,294.61139144629556
118.18768265446042,24.495676969013413,(control),0,19,13,1,1,119.83977851137176,1317.7564894203979,49.47810554802286
118.11783676969661,24.523232208484547,(control),0,13,8,0,0,630.2954269068842,1342.9621970088929,776.585454237886
118.17198359547508,24.50582842195023,(control),0,14,14,1,0,149.74520717118182,73.26231502439151,1579.9451384355734
118.10608959491147,24.52622094441369,(control),0,11,8,2,0,290.8946305411767,197.951367288071,437.2636873100449
118.16442512033237,24.509037864142076,(control),0,1,10,0,0,234.1939367841707,847.6712780944277,1733.932379715558
118.16710254012384,24.499717395995525,(control),0,2,18,0,0,599.0249262376412,583.0939822353704,1311.953592711718
118.13735298411126,24.528133621049374,(control),0,10,18,1,0,210.6449527610595,166.7574338074241,738.6402034672072
118.10258135207613,24.51276023256964,(control),0,23,22,0,2,181.84999930957787,144.407684399563,218.3763161630644
118.13691549900305,24.516121897548622,(control),0,16,23,0,0,243.99113095911878,1398.3577363408633,575.377018132022
118.11457981826217,24.500725920215235,(control),0,5,28,0,0,482.93957943775445,581.8764677728772,613.2543980913694
118.12875044582486,24.47582469485445,(control),0,5,27,0,0,338.6248377756999,1249.0500548192792,1545.4637236000556
118.15324857688685,24.446422340397287,(control),0,0,6,0,0,330.25365446089995,3489.1000794965544,4635.084150223861
118.10103736735988,24.529473707921838,(control),0,7,27,0,0,263.5761670035537,624.2165415381916,987.3019578159789
118.14267289351461,24.544985722741025,(control),0,0,0,0,0,257.31767006458426,200.07854677517545,1924.5018268456301
118.14018028056374,24.49051965453647,(control),0,1,23,0,1,770.886702016256,1102.927728957648,166.12422820409205
118.10776071871693,24.505887896621715,(control),0,7,23,0,0,1005.0937187591138,1066.8471691327427,759.1399183534345
118.1803903981459,24.53539564798327,(control),0,13,5,0,0,433.0542792690196,333.14289168957606,1516.16431403064
118.10354770189743,24.468708031460697,(control),0,27,48,2,0,155.44224204065787,521.9073942302111,418.87113194785223
118.11553261480657,24.486380538677672,(control),0,24,42,3,1,117.77738171297626,237.69007081937158,127.5287281435197
118.16202196430298,24.490524639134904,(control),0,7,18,2,1,656.9108753959298,600.2282922321249,381.032824858235
118.1685771410914,24.47841370776719,(control),0,17,23,0,0,191.55520176113762,1000.089793402493,914.0505649360115
118.08638656625956,24.448153565982274,(control),0,2,27,0,0,749.0473634315201,1088.4022506742367,951.0681419776143
118.18632998866846,24.49170419569043,(control),0,27,8,0,1,120.0682606364122,880.4303399941022,354.9425947232289
118.0886719483347,24.526649331481394,(control),0,4,4,0,0,882.5512351181657,1508.6571999678663,2119.841386762854
118.07815475133468,24.48027132240197,(control),0,28,27,1,1,331.993405028256,374.9349721776904,42.54765130498311
118.08381008844299,24.4690403561612,(control),0,28,65,4,0,281.2253236042344,268.71139548409707,1081.6029603922148
118.14450875583431,24.512757443690987,(control),0,10,20,0,0,263.4494225401976,1109.4011726441859,942.7767135174214
118.12792598203875,24.47424579454346,(control),0,3,20,0,0,312.26148515599147,1432.8636464802341,1510.5947115900724
118.13312756422638,24.484763355606084,(control),0,19,33,0,0,184.05615450649782,407.1510144746795,1069.383781730111
118.12300074221827,24.51334352685609,(control),0,9,38,2,1,557.155293870603,650.1275075086248,425.0930385637839
118.16428527137661,24.54103195028753,(control),0,0,13,1,0,799.8229815632218,1108.9619427304394,554.3450537161652
118.07880583410034,24.465132798238937,(control),0,25,82,2,0,309.202668901808,557.1315191906722,876.7312876176985
118.09968513886551,24.434773309010694,(control),0,0,5,0,1,120.88785075980763,1049.2540691915717,2942.337067864558
118.1162773951423,24.440168032891055,(control),0,4,39,0,1,444.8235151869206,850.1842422831561,3338.7378529049593
118.11897685136644,24.48217043447913,(control),0,18,34,6,1,308.0988537088157,370.68023336515574,374.040827558955
118.12170576843326,24.551296326859752,(control),0,17,6,1,0,135.23593073377316,402.08815804106877,1523.1769671878603
118.0826291059638,24.46093016057193,(control),0,16,50,0,1,457.88611192243,776.8266350263356,271.98671781439083
118.13352200464651,24.506708363430455,(control),0,11,21,1,0,674.9692526344738,1199.4584769718745,1243.9337798737474
118.16745882615024,24.465858197203104,(control),0,0,10,0,0,730.044889335173,1820.2815501466082,2270.890686644366
118.1617461030356,24.451068260814004,(control),0,0,8,0,0,991.7068390659718,3041.9982067599635,3985.365617037432
118.13004522822051,24.512604350260276,(control),0,20,19,1,0,545.7183591395506,1220.8696885384659,892.2944442994922
118.15368480767,24.50812891788348,(control),0,1,19,0,0,444.99493997922633,601.3737752280675,1841.1197841700068
118.17622395554889,24.5144030423697,(control),0,9,19,0,0,343.7268036174446,554.317108183571,568.5848042368715
118.10769244616206,24.47263303523094,(control),0,30,52,9,2,198.86321406949634,145.7795772387299,161.72307767916882
118.16589259075187,24.522881174969427,(control),0,0,9,0,1,1021.490118040432,950.7064749780084,499.2065852680532
118.081842664998,24.509307874887014,(control),0,2,1,0,0,852.0206966338088,511.50946997953133,1909.4968930109917
118.1273128116797,24.521862320303306,(control),0,13,11,0,0,161.02954170211996,1392.9707666163229,576.4209181760223
118.18927861079003,24.51095362464314,(control),0,5,4,0,1,763.9429228369289,1026.3726297750359,197.77576028662284
118.07330587089945,24.462271756087,(control),0,25,62,3,0,101.05422727747697,103.39974963880601,1050.9723905619871
118.1198712660657,24.51426624247694,(control),0,18,44,2,1,415.2956697995977,566.3598694868899,244.94422911773444
118.17965352522981,24.52396272107943,(control),0,4,17,1,0,746.1936546157485,943.3920550947828,460.8415382507571
118.11821108096996,24.48498175435448,(control),0,25,40,6,1,156.18320071096588,219.85741463673122,82.61460233627265
118.15974075592466,24.540700696975012,(control),0,0,12,1,0,670.7935743074478,770.5171030699593,400.8103515847833
118.11806336856576,24.5436257488807,(control),0,4,3,0,0,930.86354430634,1010.8260567744151,685.427589238169
118.16851005723925,24.481032118671266,(control),0,28,23,0,0,53.068859154250475,736.5935660080704,628.3190686505216
118.13251200126341,24.51421642620295,(control),0,16,20,1,0,333.44087251612086,1522.4328938832239,667.907416437496
118.1791206204339,24.484769263138098,(control),0,12,13,0,1,105.32714430366515,189.77769448902944,112.56455837151441
118.10656751833162,24.48059827016857,(control),0,5,32,1,1,657.0559887238048,693.0782266947506,260.4788307334053
118.11255058561409,24.54659525586524,(control),0,5,8,0,0,820.8772425777059,881.837333734143,632.6340701830418
118.10360738544689,24.46176893828291,(control),0,1,28,0,0,840.1658932715982,1094.9406498122655,832.3430832724235
118.12106446419327,24.552500134481875,(control),0,19,8,1,0,21.35159986745687,304.6158914487435,1586.9808847089216
118.1895143992125,24.507020995725906,(control),0,6,6,0,1,926.4138328149055,1097.8053093643352,49.71385653993274
118.16912133361805,24.512761259719042,(control),0,0,10,1,0,452.1347554358908,697.5710724208561,1104.4029677891633
118.18470681493311,24.51877619298813,(control),0,0,1,0,1,864.4535440586415,1116.1665612363931,407.5236564370042
118.11998885967573,24.48138880689744,(control),0,15,32,4,0,300.1363301652599,504.8834084292985,506.0122990086336
118.17461164539775,24.48924802196907,(control),0,18,7,1,0,129.54902727619623,377.4533045122067,528.9504573979627
118.15987752222341,24.462670793610386,(control),0,0,8,0,0,25.21951822451087,1749.312490307471,2795.935793673303
118.1390101898172,24.49437680713337,(control),0,6,54,0,1,432.59518549240045,1223.2035821402062,236.0378674305126
118.12324339813865,24.526543685538027,(control),0,4,8,0,0,513.0390448421701,1146.4194968641134,1058.190492252025
118.08540229522632,24.508243562162104,(control),0,8,12,1,0,778.6293434989572,276.1455265172319,1558.1109340505134
118.15209288206958,24.50520202678092,(control),0,2,25,1,0,806.7793190930064,961.6330539188308,1678.761798355992
118.09044171299932,24.50478321985709,(control),0,10,19,0,0,842.9057202865612,727.4444782957657,1126.778970066679
118.16208536178611,24.487016542740907,(control),0,4,29,0,1,635.4028645009087,735.0777273785693,301.28778935686444
118.08113075046788,24.4548158643101,(control),0,16,59,8,1,335.388637039319,309.69313525558516,238.93996486582006
118.12287085962022,24.551494146631537,(control),0,11,4,1,0,193.8103000220236,505.8962941342632,1618.8941097557104
118.18513927639913,24.517725018053746,(control),0,0,0,0,1,774.6407105735351,1041.724959966581,313.19650276513414
118.12385893154038,24.500878511654417,(control),0,21,39,11,1,349.66421694609295,354.0036713792594,180.75974395458553
118.17151150225381,24.49350117860398,(control),0,4,10,1,0,208.24857450613973,557.9195776246376,660.9108014522939
118.11487628302443,24.51896989144563,(control),0,40,19,1,0,105.0294659972094,1118.6219888371584,409.4762465238061
118.18095436291227,24.507459109003445,(control),0,14,12,1,0,269.8941573889758,337.4826010975435,770.9695358180709
118.1374767644383,24.509479147737743,(control),0,9,21,1,0,644.0347272771966,1669.563254629681,1280.1092432304545
118.08232080186136,24.4938683055337,(control),0,0,22,0,0,858.2718918772545,996.7278727131936,1178.6960901493824
118.17358481015182,24.482268207628657,(control),0,24,25,0,0,51.46546822049458,543.0135324643229,586.3944737076054
118.18117472533832,24.48309591574739,(control),0,6,16,0,1,173.4918604677243,281.3770058043792,30.15991331585636
118.17142235324414,24.51159840337307,(control),0,6,17,3,0,406.30333682285954,431.5051979195255,1048.8976113958254
118.14988637539379,24.52713027837376,(control),0,40,26,0,1,174.8450019039771,1034.2311770680274,177.63679060948053
118.13936634612578,24.527744254628153,(control),0,9,26,0,0,127.79787695486677,106.99576073834093,599.6044331660539
118.14513980861828,24.529765594780173,(control),0,3,50,0,0,478.3362939472973,643.6190266166166,740.0492828648141
118.13737432405489,24.49545309056916,(control),0,6,59,0,2,323.4874430541088,1194.9714569070961,320.77071258980504
118.12836962870696,24.523105620300388,(control),0,12,20,1,0,334.2118964887711,1230.1143132037932,525.9341029323379
118.13893695744291,24.48306991347202,(control),0,12,30,0,0,501.0619514468134,1009.0030049214273,986.1102765819996
118.1181969557173,24.495149458168804,(control),0,14,43,1,0,452.3144121695863,448.83973304711895,449.702118362848
118.1238067786719,24.55168182498176,(control),0,10,4,1,0,270.85368099002557,593.084579833544,1700.2542496923174
118.1273883923839,24.52669518256021,(control),0,3,23,1,0,321.53427967334636,1106.5707130090675,862.5123108147875
118.10269584024124,24.528431604736827,(control),0,7,23,2,0,384.95433527080473,436.35767580250496,795.086903111714
118.1708396133649,24.489444421493396,(control),0,18,11,3,1,246.80880475737735,192.18460415209873,246.58736703486557
118.19261013542176,24.49488102131113,(control),0,13,6,0,1,260.42618462851556,1580.5926817109137,447.54787232546096
118.10508730596952,24.47486436076179,(control),0,21,63,4,1,175.8283216272939,162.6570971252841,146.6000477321589
118.13141911853839,24.485983084658052,(control),0,20,20,0,0,342.9538221633171,187.57285554769769,943.7628580198656
118.1210955565067,24.549037263780296,(control),0,15,6,1,0,378.33203450023206,513.1327986489574,1299.2187091484825
118.08595479506154,24.49783358450711,(control),0,1,26,0,0,944.0182612777344,1058.1665596456946,1320.9457548877194
118.12961370057747,24.52820393109024,(control),0,3,25,1,0,300.0256401977781,943.1091074123221,890.5140802039168
118.1347611183659,24.428209861196656,(control),0,0,0,0,0,1465.3029214141802,1251.4963458901718,5359.14911603067
118.06254216407025,24.449638522172528,(control),0,0,12,0,0,530.1882304253126,500.6411694112474,1514.3502167873949
118.07055580595019,24.469461625360907,(control),0,16,14,0,0,534.8915906056279,407.65886162311807,1419.7790496734601
118.11230345400261,24.54233225237722,(control),0,9,9,0,1,1222.1636162142001,1293.4564013358986,163.43110700575068
118.14874238837285,24.445465198154473,(control),0,0,6,0,0,693.2422542221425,3305.4581172261273,4816.807587965659
118.14987444605823,24.501338683815625,(control),0,2,28,1,0,929.6962265490416,1443.2966154611895,1218.029262679513
118.15676753678719,24.528641414108844,(control),0,61,22,0,0,108.9529216299238,689.4386131610366,598.7532003794707
118.10826364081719,24.500180680617326,(control),0,5,17,1,0,371.52358790194387,648.2820518243221,1187.141273737224
118.0715275204706,24.462666257996677,(control),0,27,42,3,0,248.74254424848877,287.77290730462954,1180.1805688981556
118.10321456413973,24.496574390922774,(control),0,5,16,1,0,518.2609059070143,564.2419331293357,613.7845465313385
118.16307366789815,24.47938417065771,(control),0,8,31,0,0,543.0556622239162,814.3363967239046,1019.7664725796584
118.1091061423043,24.491122322129065,(control),0,21,20,2,1,343.83921829132703,366.24127526484955,265.01049983208225
118.14614786562682,24.51443067402505,(control),0,13,21,0,0,132.52824980641884,921.5794575177279,831.0677454304927
118.10622375626323,24.53060729547046,(control),0,2,23,0,0,586.3971915129944,644.7768360342524,559.9362067758477
118.17970891637376,24.467590133217914,(control),0,0,3,0,0,1278.9751921493448,1172.3154322722762,1739.01527385969
118.160373213566,24.46096859779898,(control),0,0,6,0,0,203.99406327240442,1944.3784670656473,2985.8396583899375
118.18907683449838,24.50235187123483,(control),0,5,13,1,1,433.5427232080979,1314.726798011515,78.84913338475535
118.12668919324543,24.497625828275474,(control),0,25,43,3,0,155.4773711257549,615.442091827908,515.1946977531018
118.09163717482375,24.47132864848476,(control),0,12,72,0,0,81.73086273393474,623.6648900547373,665.912306895802
118.16413135432836,24.531411130405676,(control),0,1,11,0,1,515.2846699715353,930.5955541650286,315.1723212670928
118.1111483130378,24.49739737202581,(control),0,19,27,2,0,293.33814619906053,451.8654511266336,940.4435445287473
118.13672066430782,24.537669235287066,(control),0,10,1,0,0,164.36883769519588,1026.7839903343063,1725.923705151783
118.13250897115144,24.50676029193951,(control),0,10,25,1,0,700.2380583482551,1100.6225297337785,1153.3396650387422
118.11263390139906,24.547877141093366,(control),0,4,9,0,0,716.7426522104887,771.2318447697072,774.661000363184
118.09164460052608,24.524631659706063,(control),0,15,10,0,0,507.6821014390302,1234.3144810083108,1746.61720922928
118.08753433138939,24.47997937826881,(control),0,6,6,0,1,370.1292948828938,800.0599104197643,393.0941144332703
118.11189045046623,24.521276749112346,(control),0,37,16,0,0,488.98714570328775,833.0951898332821,598.0113291620612
118.13249486613826,24.438612754108618,(control),0,0,7,0,0,1721.5646562599895,1569.7036055930173,4248.160253072196
118.09751949832325,24.513282048349108,(control),0,35,20,0,0,334.99199110588944,413.4742479702525,496.6406797823496
118.15384394626602,24.526802300414783,(control),0,53,17,0,1,206.96059804780424,893.0221027718817,251.0821224753731
118.15523338804735,24.47724282656423,(control),0,7,24,5,0,79.29462346596733,70.44070067376113,1237.2006436865327
118.09588216186242,24.476071060426644,(control),0,10,24,0,0,262.16988034625723,455.2881450910016,528.3587575075808
118.13292343323515,24.557725689165117,(control),0,0,1,0,0,1317.1862843567524,1528.7947123124525,2833.084314878954
118.10735756830191,24.474293508943212,(control),0,24,57,9,2,226.61846195168738,78.3367648457996,216.35035846999384
118.09211485205005,24.519477361675825,(control),0,27,23,0,0,465.2579492281597,661.5518436259579,1374.3183266613842
118.10878433551117,24.538017678238777,(control),0,3,4,0,1,1245.3195026301107,1504.5938359044467,361.07481062172633
118.19193281861955,24.489614984595164,(control),0,32,5,1,1,108.244196750461,1216.7160543942132,430.7909466200728
118.10855866759704,24.48362813793499,(control),0,3,32,0,0,572.7087468393909,774.8756016249104,476.82012115553255
118.18099206313454,24.49109893347602,(control),0,9,5,0,0,165.2254262704469,608.6102851073064,712.228990645248
118.18918238067418,24.530127983783817,(control),0,5,1,2,0,303.2827079793432,293.7309180640555,1567.2318689624549
118.1118254868801,24.535918279005656,(control),0,0,6,0,1,1014.806557146658,1412.0874616560009,401.11539233973497
118.09326448785826,24.537341746783795,(control),0,2,1,0,0,1172.6344446009475,1796.7502777884158,1862.9303240922372
118.17418333582948,24.461296534653982,(control),0,0,13,0,0,1391.4670029654446,2064.8917682871993,2489.1934305059967
118.10569511679309,24.46217976876621,(control),0,0,21,0,0,907.2420866180458,975.1161467558646,984.6677373041954
118.17750349880276,24.500543091941715,(control),0,0,3,0,0,697.9919682894182,838.9333265760065,1051.241333341604
118.19068285894728,24.512642560680522,(control),0,1,4,0,0,913.8098265351578,1198.6803947914132,395.5151482585391
118.10402194859422,24.515314519992277,(control),0,22,25,0,1,428.16061635967407,306.50314529896275,145.91022949629735
118.06468991444294,24.44251215180328,(control),0,0,6,0,0,649.3875252948384,541.1643002950103,1700.1484304005312
118.14304806619941,24.510577552560278,(control),0,5,16,0,0,538.7583580421285,1310.0899623603018,1157.5939105484845
118.07288519671727,24.465821690915114,(control),0,29,61,2,0,136.7479525164357,424.7231986703003,1389.9139576975736
118.10713308674441,24.52840416687796,(control),0,10,13,1,1,364.7384438656657,454.1708525664593,368.7135049178398
118.16982662562361,24.45828539296047,(control),0,0,7,0,0,1142.5088099778607,2599.813611316771,2929.3482566514035
118.11268171979803,24.459869125400687,(control),0,0,7,0,0,1272.1822042426256,1268.1887228324854,1255.0655413606648
118.11247648091233,24.540457440741463,(control),0,9,7,0,1,1400.950385141102,1428.7622895921904,57.02166026677983
118.14864531632827,24.54727943720878,(control),0,1,0,0,0,519.1747867701683,679.7299219571969,1597.2547903580437
118.10360119220601,24.479594760933413,(control),0,7,27,1,1,600.2683973306384,655.8894738349136,222.22620823911967
118.13611772770373,24.52696942966061,(control),0,6,17,1,0,383.00381203977963,336.76517564664294,712.7614500020541
118.10717143398001,24.51197561274085,(control),0,20,27,0,1,653.5881532152824,597.6437348107635,343.18845428333964
118.1037503258319,24.49401780959315,(control),0,9,18,1,0,289.274834938568,390.6360916377061,535.1469898894037
118.14712492087759,24.54116590737122,(control),0,7,1,0,0,503.3233892049359,803.0507928797537,1335.9063380920993
118.09556448317745,24.443135013016985,(control),0,0,6,0,0,567.0784068832681,866.8885063620929,1938.232644676409
118.1121084909433,24.51442434598822,(control),0,25,40,1,1,254.0987458722593,840.2014645513846,102.05971099588514
118.09813010062949,24.466921829204527,(control),0,17,56,3,1,298.44963274862806,613.039518552122,243.3275370914793
118.12465134275382,24.53424555542187,(control),0,12,9,0,0,384.1631181020769,291.2673790819578,1367.695380138531
118.14609696720359,24.53396365565599,(control),0,19,20,1,0,68.67556742459347,938.3109141842048,1000.9634659556164
118.19120575079572,24.507296589063543,(control),0,5,3,0,1,962.3034928635245,1254.3197613153177,211.31658742828878
118.08372812924499,24.51389526507316,(control),0,14,1,0,0,368.63327748436075,491.9255009042722,1774.8397084299877
118.1501923875808,24.502889477278707,(control),0,2,26,1,0,1049.0014589262405,1273.8561466369035,1392.451476263874
118.11603920939176,24.43342837203811,(control),0,3,9,0,1,617.8172595025871,105.06246105644813,3921.563210176559
118.15196310161184,24.513492256116596,(control),0,15,13,3,0,325.16897304921,360.30689449940104,1267.6448866167236
118.18144132303286,24.521019750318455,(control),0,4,7,1,1,1032.126768796056,1236.0946121900367,289.7068937859998
118.17531301324573,24.469211268470854,(control),0,0,7,1,0,837.3797357698202,1343.7583827742358,1609.471438547923
118.11080579668808,24.53815550753985,(control),0,5,6,0,1,1251.9150350260072,1542.2889961092499,191.32080531746132
118.1179123468914,24.52989865309989,(control),0,6,7,0,0,840.2372348001269,1100.5071428916235,624.9196026065524
118.1385308395345,24.49537842394218,(control),0,7,60,0,1,394.36807365756016,1265.7092919719034,348.28238013752997
118.1334615713447,24.48932661317115,(control),0,17,24,0,0,444.64598525040816,433.82693210816785,567.7393281301655
118.09319871087567,24.466157615384496,(control),0,11,49,3,1,333.1339632550139,851.9183726280914,327.5260097048815
118.06301051469462,24.450801639708576,(control),0,0,8,0,0,552.1376743271146,550.9428362109583,1442.1426640034877
118.11987080860861,24.54376469933912,(control),0,1,2,0,0,933.6724640880077,1003.5385626832154,846.7126498009123
118.08509502724824,24.493739458878945,(control),0,2,16,0,0,723.1735294503716,756.4524248867134,1233.5472646086357
118.12583197139979,24.515577753870478,(control),0,11,19,2,0,558.7872879433143,1028.8091632265957,463.40160714532954
118.15322437042128,24.502645933154604,(control),0,2,20,1,0,1029.6381790178966,1200.1810322147414,1438.8882616108979
118.15103452641583,24.529367618411516,(control),0,67,31,0,1,118.89491583328126,765.8408530722874,336.79040486385935
118.12881529959331,24.442929106911006,(control),0,0,0,0,0,1721.441871443989,1723.9962441540617,3644.8764899227494
118.1072082531428,24.470755547922366,(control),0,31,40,8,1,56.37763392831055,89.11214681443987,176.92839859206555
118.1231535363146,24.532150066002004,(control),0,17,9,0,0,487.6327444398918,567.5665913679502,1206.6476835445037
118.05935318439536,24.4490413334903,(control),0,0,10,0,0,825.2023464349929,767.0971857203982,1844.1138489195475
118.17934265139344,24.469348144245046,(control),0,0,0,0,0,1113.9112432014538,1042.0003323447452,1543.7652365731453
118.18648122983491,24.509953345064545,(control),0,7,6,0,1,506.442750415878,738.0984519819974,245.71512384433709
118.12771098575392,24.530376851146933,(control),0,4,18,0,0,109.54832046457625,712.1234557206017,1188.8097350519295
118.12269048070584,24.48646283229334,(control),0,17,37,3,1,523.9642102114846,87.79273883006657,383.8891825323741
118.12169334133256,24.4779655794422,(control),0,9,34,2,0,365.8651865741506,898.8123034841785,801.9986910581691
118.12947693473707,24.523733209621906,(control),0,10,29,1,0,457.1795801191685,1098.2408830033864,477.8142221232037
118.10565596921236,24.470672156524152,(control),0,30,44,7,1,119.40693297345992,232.00718141281695,333.058041685649
118.16576824709237,24.47951442895917,(control),0,12,26,0,0,298.5213514162283,1028.4097420416895,878.7017002692124
118.13510235655939,24.503448482071764,(control),0,2,17,1,0,445.61282007457334,1337.5643133729936,927.066991260658
118.11890055859323,24.42922527320209,(control),0,0,2,0,0,215.06929373959133,388.49000934142396,4469.874756295263
